aileron,elevator,rudder,flaps,slats,speedbrake,throttle,throttle2,engine-pump,engine-pump2,electric-pump,electric-pump2,external-power,APU-generator,latitude-deg,longitude-deg,altitude-ft,roll-deg,pitch-deg,heading-deg,side-slip-deg,airspeed-kt,glideslope,vertical-speed-fps,airspeed-indicator_indicated-speed-kt,altimeter_indicated-altitude-ft,altimeter_pressure-alt-ft,attitude-indicator_indicated-pitch-deg,attitude-indicator_indicated-roll-deg,attitude-indicator_internal-pitch-deg,attitude-indicator_internal-roll-deg,encoder_indicated-altitude-ft,encoder_pressure-alt-ft,gps_indicated-altitude-ft,gps_indicated-ground-speed-kt,gps_indicated-vertical-speed,indicated-heading-deg,magnetic-compass_indicated-heading-deg,slip-skid-ball_indicated-slip-skid,turn-indicator_indicated-turn-rate,vertical-speed-indicator_indicated-speed-fpm,engine_rpm
0.0,0.0,0.0,0.0,0.0,0.0,0.0,0.0,0.0,0.0,0.0,0.0,0.0,0.0,63.985043,-22.592484,-9999.0,0.0,0.424,270.02136,0.0,0.0,0.0,0.0,0.0,0.0,0.0,0.0,0.0,0.0,0.0,0.0,0.0,0.0,0.0,0.0,0.0,0.0,0.0,0.0,0.0,0.0
0.0,0.0,0.0,0.0,0.0,0.0,0.0,0.0,0.0,0.0,0.0,0.0,0.0,0.0,63.985043,-22.592484,-9999.0,0.0,0.424,270.02136,0.0,0.0,0.0,0.0,0.0,389.08878,1.193444,12.0,40.0,0.0,0.0,0.0,0.0,0.0,0.0,0.0,283.2325,0.0,0.0,0.0,0.0,0.0
0.0,0.0,0.0,0.0,0.0,0.0,0.0,0.0,0.0,0.0,0.0,0.0,0.0,0.0,63.991837,-22.605425,-9999.0,0.0,0.424,180.01839,0.0,0.0,0.0,0.0,0.0,389.08878,1.193444,12.0,40.0,0.0,0.0,0.0,0.0,0.0,0.0,0.0,283.2325,0.0,0.0,0.0,0.0,0.0
0.0,0.0,0.0,0.0,0.0,0.0,0.0,0.0,0.0,0.0,0.0,0.0,0.0,0.0,63.991837,-22.605425,-9999.0,0.0,0.424,180.01839,0.0,0.0,0.0,0.0,0.0,389.08878,1.193444,12.0,40.0,0.0,0.0,0.0,0.0,0.0,0.0,0.0,283.2325,0.0,0.0,0.0,0.0,0.0
0.0,0.0,0.0,0.0,0.0,0.0,0.0,0.0,0.0,0.0,0.0,0.0,0.0,0.0,63.991837,-22.605425,-9999.0,0.0,0.424,180.01839,0.0,0.0,0.0,0.0,0.0,389.08878,1.193444,12.0,40.0,0.0,0.0,0.0,0.0,0.0,0.0,0.0,283.2325,0.0,0.0,0.0,0.0,0.0
0.0,0.0,0.0,0.0,0.0,0.0,0.0,0.0,0.0,0.0,0.0,0.0,0.0,0.0,63.991837,-22.605425,-9999.0,0.0,0.424,180.01839,0.0,0.0,0.0,0.0,0.0,389.08878,1.193444,12.0,40.0,0.0,0.0,0.0,0.0,0.0,0.0,0.0,283.2325,0.0,0.0,0.0,0.0,0.0
0.0,0.0,0.0,0.0,0.0,0.0,0.0,0.0,0.0,0.0,0.0,0.0,0.0,0.0,63.991837,-22.605425,-9999.0,0.0,0.424,180.01839,0.0,0.0,0.0,0.0,0.0,389.08878,1.193444,12.0,40.0,0.0,0.0,0.0,0.0,0.0,0.0,0.0,283.2325,0.0,0.0,0.0,0.0,0.0
0.0,0.0,0.0,0.0,0.0,0.0,0.0,0.0,0.0,0.0,0.0,0.0,0.0,0.0,63.991837,-22.605425,-9999.0,0.0,0.424,180.01839,0.0,0.0,0.0,0.0,0.0,389.08878,1.193444,12.0,40.0,0.0,0.0,0.0,0.0,0.0,0.0,0.0,283.2325,0.0,0.0,0.0,0.0,0.0
0.0,0.0,0.0,0.0,0.0,0.0,0.0,0.0,0.0,0.0,0.0,0.0,0.0,0.0,63.991837,-22.605425,-9999.0,0.0,0.424,180.01839,0.0,0.0,0.0,0.0,0.0,389.08878,1.193444,12.0,40.0,0.0,0.0,0.0,0.0,0.0,0.0,0.0,283.2325,0.0,0.0,0.0,0.0,0.0
0.0,0.0,0.0,0.0,0.0,0.0,0.0,0.0,0.0,0.0,0.0,0.0,0.0,0.0,63.991837,-22.605425,-9999.0,0.0,0.424,180.01839,0.0,0.0,0.0,0.0,0.0,389.08878,1.193444,12.0,40.0,0.0,0.0,0.0,0.0,0.0,0.0,0.0,283.2325,0.0,0.0,0.0,0.0,0.0
0.0,0.0,0.0,0.0,0.0,0.0,0.0,0.0,0.0,0.0,0.0,0.0,0.0,0.0,63.991837,-22.605425,-9999.0,0.0,0.424,180.01839,0.0,0.0,0.0,0.0,0.0,389.08878,1.193444,12.0,40.0,0.0,0.0,0.0,0.0,0.0,0.0,0.0,283.2325,0.0,0.0,0.0,0.0,0.0
0.0,0.0,0.0,0.0,0.0,0.0,0.0,0.0,0.0,0.0,0.0,0.0,0.0,0.0,63.991837,-22.605425,-9999.0,0.0,0.424,180.01839,0.0,0.0,0.0,0.0,0.0,389.08878,1.193444,12.0,40.0,0.0,0.0,0.0,0.0,0.0,0.0,0.0,283.2325,0.0,0.0,0.0,0.0,0.0
0.0,0.0,0.0,0.0,0.0,0.0,0.0,0.0,0.0,0.0,0.0,0.0,0.0,0.0,63.991837,-22.605425,-9999.0,0.0,0.424,180.01839,0.0,0.0,0.0,0.0,0.0,389.08878,1.193444,12.0,40.0,0.0,0.0,0.0,0.0,0.0,0.0,0.0,283.2325,0.0,0.0,0.0,0.0,0.0
0.0,0.0,0.0,0.0,0.0,0.0,0.0,0.0,0.0,0.0,0.0,0.0,0.0,0.0,63.991837,-22.605425,-9999.0,0.0,0.424,180.01839,0.0,0.0,0.0,0.0,0.0,389.08878,1.193444,12.0,40.0,0.0,0.0,0.0,0.0,0.0,0.0,0.0,283.2325,0.0,0.0,0.0,0.0,0.0
0.0,0.0,0.0,0.0,0.0,0.0,0.0,0.0,0.0,0.0,0.0,0.0,0.0,0.0,63.991837,-22.605425,-9999.0,0.0,0.424,180.01839,0.0,0.0,0.0,0.0,0.0,389.08878,1.193444,12.0,40.0,0.0,0.0,0.0,0.0,0.0,0.0,0.0,283.2325,0.0,0.0,0.0,0.0,0.0
0.0,0.0,0.0,0.0,0.0,0.0,0.0,0.0,0.0,0.0,0.0,0.0,0.0,0.0,63.991837,-22.605425,-9999.0,0.0,0.424,180.01839,0.0,0.0,0.0,0.0,0.0,389.08878,1.193444,12.0,40.0,0.0,0.0,0.0,0.0,0.0,0.0,0.0,283.2325,0.0,0.0,0.0,0.0,0.0
0.0,0.0,0.0,0.0,0.0,0.0,0.0,0.0,0.0,0.0,0.0,0.0,0.0,0.0,63.991837,-22.605425,-9999.0,0.0,0.424,180.01839,0.0,0.0,0.0,0.0,0.0,389.08878,1.193444,12.0,40.0,0.0,0.0,0.0,0.0,0.0,0.0,0.0,283.2325,0.0,0.0,0.0,0.0,0.0
0.0,0.0,0.0,0.0,0.0,0.0,0.0,0.0,0.0,0.0,0.0,0.0,0.0,0.0,63.991837,-22.605425,-9999.0,0.0,0.424,180.01839,0.0,0.0,0.0,0.0,0.0,389.08878,1.193444,12.0,40.0,0.0,0.0,0.0,0.0,0.0,0.0,0.0,283.2325,0.0,0.0,0.0,0.0,0.0
0.0,0.0,0.0,0.0,0.0,0.0,0.0,0.0,0.0,0.0,0.0,0.0,0.0,0.0,63.991837,-22.605425,-9999.0,0.0,0.424,180.01839,0.0,0.0,0.0,0.0,0.0,389.08878,1.193444,12.0,40.0,0.0,0.0,0.0,0.0,0.0,0.0,0.0,283.2325,0.0,0.0,0.0,0.0,0.0
0.0,0.0,0.0,0.0,0.0,0.0,0.0,0.0,0.0,0.0,0.0,0.0,0.0,0.0,63.991837,-22.605425,-9999.0,0.0,0.424,180.01839,0.0,0.0,0.0,0.0,0.0,389.08878,1.193444,12.0,40.0,0.0,0.0,0.0,0.0,0.0,0.0,0.0,283.2325,0.0,0.0,0.0,0.0,0.0
0.0,0.0,0.0,0.0,0.0,0.0,0.0,0.0,0.0,0.0,0.0,0.0,0.0,0.0,63.991837,-22.605425,-9999.0,0.0,0.424,180.01839,0.0,0.0,0.0,0.0,0.0,389.08878,1.193444,12.0,40.0,0.0,0.0,0.0,0.0,0.0,0.0,0.0,283.2325,0.0,0.0,0.0,0.0,0.0
0.0,0.0,0.0,0.0,0.0,0.0,0.0,0.0,0.0,0.0,0.0,0.0,0.0,0.0,63.991837,-22.605425,-9999.0,0.0,0.424,180.01839,0.0,0.0,0.0,0.0,0.0,389.08878,1.193444,12.0,40.0,0.0,0.0,0.0,0.0,0.0,0.0,0.0,283.2325,0.0,0.0,0.0,0.0,0.0
0.0,0.0,0.0,0.0,0.0,0.0,0.0,0.0,0.0,0.0,0.0,0.0,0.0,0.0,63.991837,-22.605425,-9999.0,0.0,0.424,180.01839,0.0,0.0,0.0,0.0,0.0,389.08878,1.193444,12.0,40.0,0.0,0.0,0.0,0.0,0.0,0.0,0.0,283.2325,0.0,0.0,0.0,0.0,0.0
0.0,0.0,0.0,0.0,0.0,0.0,0.0,0.0,0.0,0.0,0.0,0.0,0.0,0.0,63.991837,-22.605425,-9999.0,0.0,0.424,180.01839,0.0,0.0,0.0,0.0,0.0,389.08878,1.193444,12.0,40.0,0.0,0.0,0.0,0.0,0.0,0.0,0.0,283.2325,0.0,0.0,0.0,0.0,0.0
0.0,0.0,0.0,0.0,0.0,0.0,0.0,0.0,0.0,0.0,0.0,0.0,0.0,0.0,63.991837,-22.605425,-9999.0,0.0,0.424,180.01839,0.0,0.0,0.0,0.0,0.0,389.08878,1.193444,12.0,40.0,0.0,0.0,0.0,0.0,0.0,0.0,0.0,283.2325,0.0,0.0,0.0,0.0,0.0
0.0,0.0,0.0,0.0,0.0,0.0,0.0,0.0,0.0,0.0,0.0,0.0,0.0,0.0,63.991837,-22.605425,-9999.0,0.0,0.424,180.01839,0.0,0.0,0.0,0.0,0.0,389.08878,1.193444,12.0,40.0,0.0,0.0,0.0,0.0,0.0,0.0,0.0,283.2325,0.0,0.0,0.0,0.0,0.0
0.0,0.0,0.0,0.0,0.0,0.0,0.0,0.0,0.0,0.0,0.0,0.0,0.0,0.0,63.991837,-22.605425,-9999.0,0.0,0.424,180.01839,0.0,0.0,0.0,0.0,0.0,389.08878,1.193444,12.0,40.0,0.0,0.0,0.0,0.0,0.0,0.0,0.0,283.2325,0.0,0.0,0.0,0.0,0.0
0.0,0.0,0.0,0.0,0.0,0.0,0.0,0.0,0.0,0.0,0.0,0.0,0.0,0.0,63.991837,-22.605425,-9999.0,0.0,0.424,180.01839,0.0,0.0,0.0,0.0,0.0,389.08878,1.193444,12.0,40.0,0.0,0.0,0.0,0.0,0.0,0.0,0.0,283.2325,0.0,0.0,0.0,0.0,0.0
0.0,0.0,0.0,0.0,0.0,0.0,0.0,0.0,0.0,0.0,0.0,0.0,0.0,0.0,63.991837,-22.605425,-9999.0,0.0,0.424,180.01839,0.0,0.0,0.0,0.0,0.0,389.08878,1.193444,12.0,40.0,0.0,0.0,0.0,0.0,0.0,0.0,0.0,283.2325,0.0,0.0,0.0,0.0,0.0
0.0,0.0,0.0,0.0,0.0,0.0,0.0,0.0,0.0,0.0,0.0,0.0,0.0,0.0,63.991837,-22.605425,-9999.0,0.0,0.424,180.01839,0.0,0.0,0.0,0.0,0.0,389.08878,1.193444,12.0,40.0,0.0,0.0,0.0,0.0,0.0,0.0,0.0,283.2325,0.0,0.0,0.0,0.0,0.0
0.0,0.0,0.0,0.0,0.0,0.0,0.0,0.0,0.0,0.0,0.0,0.0,0.0,0.0,63.991837,-22.605425,-9999.0,0.0,0.424,180.01839,0.0,0.0,0.0,0.0,0.0,389.08878,1.193444,12.0,40.0,0.0,0.0,0.0,0.0,0.0,0.0,0.0,283.2325,0.0,0.0,0.0,0.0,0.0
0.0,0.0,0.0,0.0,0.0,0.0,0.0,0.0,0.0,0.0,0.0,0.0,0.0,0.0,63.991837,-22.605425,-9999.0,0.0,0.424,180.01839,0.0,0.0,0.0,0.0,0.0,389.08878,1.193444,12.0,40.0,0.0,0.0,0.0,0.0,0.0,0.0,0.0,283.2325,0.0,0.0,0.0,0.0,0.0
0.0,0.0,0.0,0.0,0.0,0.0,0.0,0.0,0.0,0.0,0.0,0.0,0.0,0.0,63.991837,-22.605425,-9999.0,0.0,0.424,180.01839,0.0,0.0,0.0,0.0,0.0,389.08878,1.193444,12.0,40.0,0.0,0.0,0.0,0.0,0.0,0.0,0.0,283.2325,0.0,0.0,0.0,0.0,0.0
0.0,0.0,0.0,0.0,0.0,0.0,0.0,0.0,0.0,0.0,0.0,0.0,0.0,0.0,63.991837,-22.605425,-9999.0,0.0,0.424,180.01839,0.0,0.0,0.0,0.0,0.0,389.08878,1.193444,12.0,40.0,0.0,0.0,0.0,0.0,0.0,0.0,0.0,283.2325,0.0,0.0,0.0,0.0,0.0
0.0,0.0,0.0,0.0,0.0,0.0,0.0,0.0,0.0,0.0,0.0,0.0,0.0,0.0,63.991837,-22.605425,-9999.0,0.0,0.424,180.01839,0.0,0.0,0.0,0.0,0.0,389.08878,1.193444,12.0,40.0,0.0,0.0,0.0,0.0,0.0,0.0,0.0,283.2325,0.0,0.0,0.0,0.0,0.0
0.0,0.0,0.0,0.0,0.0,0.0,0.0,0.0,0.0,0.0,0.0,0.0,0.0,0.0,63.991837,-22.605425,-9999.0,0.0,0.424,180.01839,0.0,0.0,0.0,0.0,0.0,389.08878,1.193444,12.0,40.0,0.0,0.0,0.0,0.0,0.0,0.0,0.0,283.2325,0.0,0.0,0.0,0.0,0.0
0.0,0.0,0.0,0.0,0.0,0.0,0.0,0.0,0.0,0.0,0.0,0.0,0.0,0.0,63.991837,-22.605427,146.21585,0.105229,5.245214,180.01163,0.0,0.0,0.0,0.0,0.0,389.08878,1.193444,12.0,40.0,0.0,0.0,0.0,0.0,0.0,0.0,0.0,283.2325,0.0,0.0,0.0,0.0,0.0
0.0,0.0,0.0,0.0,0.0,0.0,0.0,0.0,0.0,0.0,0.0,0.0,0.0,0.0,63.991837,-22.605427,146.21574,0.093601,5.271746,180.01067,89.87057,3.014619,-0.046912,-2.3E-5,0.0,538.4423,150.54695,12.0,40.0,0.0,0.0,150.00014,150.0,146.21574,5.2E-5,-0.002013,283.23248,344.45236,-0.010979,-0.985256,3365.8289,0.0
0.0,0.0,0.0,0.0,0.0,0.0,0.0,0.0,0.0,0.0,0.0,0.0,0.0,0.0,63.991837,-22.605427,146.2161,0.09627,5.242211,180.01086,83.89665,2.735632,0.124843,4.0E-5,0.0,510.10733,122.21199,12.0,40.0,0.0,0.0,120.000145,120.0,146.2161,1.09E-4,0.003019,283.23248,304.6458,-0.014634,-1.582221,1673.4641,0.0
0.0,0.0,0.0,0.0,0.0,0.0,0.0,0.0,0.0,0.0,0.0,0.0,0.0,0.0,63.991837,-22.605427,146.21608,0.099081,5.24213,180.0111,76.419365,2.495195,-0.092921,-3.0E-6,0.0,481.76602,93.87067,12.0,40.0,0.0,0.0,90.000145,90.0,146.21608,8.9E-5,-1.68E-4,283.23248,252.08516,-0.01629,-1.94392,-159.08694,0.0
0.0,0.0,0.0,0.0,0.0,0.0,0.0,0.0,0.0,0.0,0.0,0.0,0.0,0.0,63.991837,-22.605427,146.21606,0.099206,5.242162,180.01111,75.03645,2.459739,-0.145044,-1.1E-5,5.888528,478.63992,90.74458,12.0,40.0,0.0,0.0,90.000145,90.0,146.21606,8.6E-5,-0.00104,283.23248,242.9248,-0.016432,-1.988471,-528.6724,0.0
0.0,0.0,0.0,0.0,0.0,0.0,0.0,0.0,0.0,0.0,0.0,0.0,0.0,0.0,63.991837,-22.605427,146.21606,0.099333,5.242201,180.01112,74.11629,2.437478,-0.149621,-1.7E-5,6.882218,475.9983,88.10294,12.0,40.0,0.0,0.0,90.000145,90.0,146.21606,8.5E-5,-0.00104,283.23248,236.9814,-0.016508,-2.015496,-689.68805,0.0
0.0,0.0,0.0,0.0,0.0,0.0,0.0,0.0,0.0,0.0,0.0,0.0,0.0,0.0,63.991837,-22.605427,146.21606,0.099469,5.242248,180.01114,73.32456,2.419137,-0.142188,-1.9E-5,7.105715,473.55792,85.662575,12.0,40.0,0.0,0.0,90.000145,90.0,146.21606,8.3E-5,-0.001577,283.23248,231.97102,-0.016583,-2.037246,-800.7228,0.0
0.0,0.0,0.0,0.0,0.0,0.0,0.0,0.0,0.0,0.0,0.0,0.0,0.0,0.0,63.991837,-22.605427,146.21606,0.099641,5.242309,180.01114,72.44715,2.399661,-0.140313,-2.1E-5,7.205441,470.77472,82.87938,12.0,40.0,0.0,0.0,90.000145,90.0,146.21606,8.1E-5,-0.001677,283.23248,226.53468,-0.016654,-2.059861,-902.2155,0.0
0.0,0.0,0.0,0.0,0.0,0.0,0.0,0.0,0.0,0.0,0.0,0.0,0.0,0.0,63.991837,-22.605427,146.21606,0.099845,5.242386,180.01117,71.480576,2.379204,-0.142572,-2.3E-5,7.276629,467.7011,79.80576,12.0,40.0,0.0,0.0,80.000145,80.0,146.21606,8.0E-5,-0.001543,283.23248,220.69151,-0.016723,-2.083114,-993.14264,0.0
0.0,0.0,0.0,0.0,0.0,0.0,0.0,0.0,0.0,0.0,0.0,0.0,0.0,0.0,63.991837,-22.605427,146.21606,0.100025,5.242456,180.01118,70.64973,2.362428,-0.143096,-2.4E-5,7.3239,465.13748,77.24214,12.0,40.0,0.0,0.0,80.000145,80.0,146.21606,7.8E-5,-0.001644,283.23248,215.7939,-0.016792,-2.101829,-1054.8566,0.0
0.0,0.0,0.0,0.0,0.0,0.0,0.0,0.0,0.0,0.0,0.0,0.0,0.0,0.0,63.991837,-22.605427,146.21605,0.100227,5.242536,180.0112,69.72994,2.344701,-0.142835,-2.4E-5,7.330574,462.3043,74.40894,12.0,40.0,0.0,0.0,80.000145,80.0,146.21605,7.7E-5,-0.00161,283.23248,210.50894,-0.016857,-2.121287,-1114.4481,0.0
0.0,0.0,0.0,0.0,0.0,0.0,0.0,0.0,0.0,0.0,0.0,0.0,0.0,0.0,63.991837,-22.605427,146.21605,0.100398,5.242604,180.01122,68.95289,2.330395,-0.139962,-2.4E-5,7.313295,459.88297,71.98762,12.0,40.0,0.0,0.0,70.000145,70.0,146.21605,7.5E-5,-0.001811,283.23248,206.15747,-0.016898,-2.136774,-1160.9377,0.0
0.0,0.0,0.0,0.0,0.0,0.0,0.0,0.0,0.0,0.0,0.0,0.0,0.0,0.0,63.991837,-22.605427,146.21605,0.100619,5.242692,180.01123,67.928535,2.312445,-0.140036,-2.4E-5,7.30209,456.81445,68.91911,12.0,40.0,0.0,0.0,70.000145,70.0,146.21605,7.4E-5,-0.001845,283.23248,200.58118,-0.016958,-2.155965,-1209.9985,0.0
0.0,0.0,0.0,0.0,0.0,0.0,0.0,0.0,0.0,0.0,0.0,0.0,0.0,0.0,63.991837,-22.605427,146.21605,0.100838,5.242781,180.01125,66.88842,2.295245,-0.138458,-2.3E-5,7.206933,453.76144,65.86611,12.0,40.0,0.0,0.0,70.000145,70.0,146.21605,7.2E-5,-0.001811,283.23248,195.10619,-0.017039,-2.174141,-1252.0065,0.0
0.0,0.0,0.0,0.0,0.0,0.0,0.0,0.0,0.0,0.0,0.0,0.0,0.0,0.0,63.991837,-22.605427,146.21605,0.101052,5.242867,180.01126,65.83291,2.278812,-0.138692,-2.2E-5,7.328353,450.68185,62.786522,12.0,40.0,0.0,0.0,70.000145,70.0,146.21605,7.1E-5,-0.001811,283.23248,189.74304,-0.017095,-2.191357,-1290.5054,0.0
0.0,0.0,0.0,0.0,0.0,0.0,0.0,0.0,0.0,0.0,0.0,0.0,0.0,0.0,63.991837,-22.605427,146.21603,0.101197,5.242926,180.01128,65.09335,2.267894,-0.137667,-2.2E-5,7.314415,448.54654,60.651184,12.0,40.0,0.0,0.0,60.00014,60.0,146.21603,7.0E-5,-0.001744,283.23248,186.1009,-0.017132,-2.20274,-1314.7241,0.0
0.0,0.0,0.0,0.0,0.0,0.0,0.0,0.0,0.0,0.0,0.0,0.0,0.0,0.0,63.991837,-22.605427,146.21603,0.101387,5.243002,180.01129,64.09631,2.253929,-0.138419,-2.1E-5,7.304644,445.75015,57.85481,12.0,40.0,0.0,0.0,60.00014,60.0,146.21603,6.8E-5,-0.001543,283.23248,181.34117,-0.017182,-2.217267,-1341.8586,0.0
0.0,0.0,0.0,0.0,0.0,0.0,0.0,0.0,0.0,0.0,0.0,0.0,0.0,0.0,63.991837,-22.605427,146.21603,0.101572,5.243076,180.0113,63.08712,2.240654,-0.136591,-2.1E-5,7.314478,442.92657,55.031242,12.0,40.0,0.0,0.0,60.00014,60.0,146.21603,6.7E-5,-0.001442,283.23248,176.69826,-0.017232,-2.231084,-1367.5786,0.0
0.0,0.0,0.0,0.0,0.0,0.0,0.0,0.0,0.0,0.0,0.0,0.0,0.0,0.0,63.991837,-22.605427,146.21603,0.101752,5.243148,180.01132,62.066174,2.228083,-0.134457,-2.0E-5,7.323031,440.09595,52.200596,12.0,40.0,0.0,0.0,50.00014,50.0,146.21603,6.5E-5,-0.001442,283.23248,172.17905,-0.01728,-2.244226,-1391.2352,0.0
0.0,0.0,0.0,0.0,0.0,0.0,0.0,0.0,0.0,0.0,0.0,0.0,0.0,0.0,63.991837,-22.605427,146.21603,0.101928,5.243218,180.01134,61.03393,2.216226,-0.129553,-1.8E-5,7.277314,437.26175,49.366405,12.0,40.0,0.0,0.0,50.00014,50.0,146.21603,6.4E-5,-0.001543,283.23248,167.79007,-0.017326,-2.256726,-1412.9299,0.0
0.0,0.0,0.0,0.0,0.0,0.0,0.0,0.0,0.0,0.0,0.0,0.0,0.0,0.0,63.991837,-22.605427,146.21603,0.102098,5.243285,180.01135,59.99089,2.205096,-0.129202,-1.8E-5,7.344241,434.43088,46.535534,12.0,40.0,0.0,0.0,50.00014,50.0,146.21603,6.3E-5,-0.001241,283.23248,163.53741,-0.01737,-2.268615,-1432.6387,0.0
0.0,0.0,0.0,0.0,0.0,0.0,0.0,0.0,0.0,0.0,0.0,0.0,0.0,0.0,63.991837,-22.605427,146.21603,0.102263,5.24335,180.01137,58.937576,2.194704,-0.125658,-1.7E-5,7.418355,431.59512,43.699783,12.0,40.0,0.0,0.0,50.00014,50.0,146.21603,6.2E-5,-0.001208,283.23248,159.42682,-0.017413,-2.279922,-1450.8322,0.0
0.0,0.0,0.0,0.0,0.0,0.0,0.0,0.0,0.0,0.0,0.0,0.0,0.0,0.0,63.991837,-22.605427,146.21602,0.102423,5.243412,180.01138,57.87456,2.18506,-0.122035,-1.6E-5,7.439608,428.76263,40.867302,12.0,40.0,0.0,0.0,40.00014,40.0,146.21602,6.0E-5,-0.001141,283.23248,155.46362,-0.017454,-2.290678,-1467.4287,0.0
0.0,0.0,0.0,0.0,0.0,0.0,0.0,0.0,0.0,0.0,0.0,0.0,0.0,0.0,63.991837,-22.605427,146.21602,0.102578,5.243471,180.0114,56.802444,2.176174,-0.115771,-1.4E-5,7.379069,425.93347,38.038136,12.0,40.0,0.0,0.0,40.00014,40.0,146.21602,5.9E-5,-0.001208,283.23248,151.65274,-0.017497,-2.300907,-1482.4601,0.0
0.0,0.0,0.0,0.0,0.0,0.0,0.0,0.0,0.0,0.0,0.0,0.0,0.0,0.0,63.991837,-22.605427,146.21602,0.102728,5.243528,180.01141,55.721886,2.168056,-0.112935,-1.4E-5,7.456202,423.09613,35.20078,12.0,40.0,0.0,0.0,40.00014,40.0,146.21602,5.8E-5,-0.001006,283.23248,147.99873,-0.017535,-2.310637,-1496.714,0.0
0.0,0.0,0.0,0.0,0.0,0.0,0.0,0.0,0.0,0.0,0.0,0.0,0.0,0.0,63.991837,-22.605427,146.21602,0.102886,5.243587,180.01143,54.54253,2.160138,-0.10563,-1.2E-5,7.475029,419.98804,32.092686,12.0,40.0,0.0,0.0,30.000143,30.0,146.21602,5.7E-5,-0.001006,283.23248,144.222,-0.017572,-2.320642,-1512.315,0.0
0.0,0.0,0.0,0.0,0.0,0.0,0.0,0.0,0.0,0.0,0.0,0.0,0.0,0.0,63.991837,-22.605427,146.21602,0.103015,5.243636,180.01143,53.538143,2.154157,-0.099953,-1.1E-5,7.406167,417.43607,29.54071,12.0,40.0,0.0,0.0,30.000143,30.0,146.21602,5.6E-5,-0.001006,283.23248,141.1774,-0.017613,-2.328693,-1521.2888,0.0
0.0,0.0,0.0,0.0,0.0,0.0,0.0,0.0,0.0,0.0,0.0,0.0,0.0,0.0,63.991837,-22.605427,146.21602,0.103151,5.243685,180.01144,52.436424,2.148392,-0.094718,-1.0E-5,7.479318,414.5945,26.699173,12.0,40.0,0.0,0.0,30.000143,30.0,146.21602,5.5E-5,-8.05E-4,283.23248,138.01715,-0.017647,-2.337065,-1532.7136,0.0
0.0,0.0,0.0,0.0,0.0,0.0,0.0,0.0,0.0,0.0,0.0,0.0,0.0,0.0,63.991837,-22.605427,146.21602,0.103283,5.243733,180.01146,51.329136,2.143425,-0.086262,-9.0E-6,7.417704,411.7539,23.858555,12.0,40.0,0.0,0.0,30.000143,30.0,146.21602,5.4E-5,-8.39E-4,283.23248,135.02788,-0.017682,-2.345027,-1543.2043,0.0
0.0,0.0,0.0,0.0,0.0,0.0,0.0,0.0,0.0,0.0,0.0,0.0,0.0,0.0,63.991837,-22.605427,146.21602,0.10341,5.243778,180.01146,50.217083,2.139262,-0.078305,-8.0E-6,7.420235,408.91714,21.02179,12.0,40.0,0.0,0.0,20.000143,20.0,146.21602,5.3E-5,-6.71E-4,283.23248,132.21213,-0.017715,-2.352601,-1552.7657,0.0
0.0,0.0,0.0,0.0,0.0,0.0,0.0,0.0,0.0,0.0,0.0,0.0,0.0,0.0,63.991837,-22.605427,146.21602,0.103543,5.243824,180.01147,49.007923,2.135666,-0.06912,-7.0E-6,7.504209,405.8129,17.91755,12.0,40.0,0.0,0.0,20.000143,20.0,146.21602,5.1E-5,-6.04E-4,283.23248,129.36003,-0.017746,-2.360388,-1563.6228,0.0
0.0,0.0,0.0,0.0,0.0,0.0,0.0,0.0,0.0,0.0,0.0,0.0,0.0,0.0,63.991837,-22.605427,146.21602,0.103651,5.243861,180.01149,47.981934,2.133367,-0.060339,-6.0E-6,7.429486,403.24625,15.350889,12.0,40.0,0.0,0.0,20.000143,20.0,146.21602,5.0E-5,-5.03E-4,283.23248,127.10938,-0.017779,-2.366656,-1569.7501,0.0
0.0,0.0,0.0,0.0,0.0,0.0,0.0,0.0,0.0,0.0,0.0,0.0,0.0,0.0,63.991837,-22.605427,146.216,0.103766,5.243899,180.01149,46.86052,2.131641,-0.050384,-5.0E-6,7.502735,400.4153,12.519956,12.0,40.0,0.0,0.0,20.000143,20.0,146.216,4.9E-5,-4.03E-4,283.23248,124.82549,-0.017809,-2.373172,-1577.1987,0.0
0.0,0.0,0.0,0.0,0.0,0.0,0.0,0.0,0.0,0.0,0.0,0.0,0.0,0.0,63.991837,-22.605427,146.216,0.103894,5.243941,180.0115,45.550453,2.130661,-0.03671,-3.0E-6,7.45521,397.06738,9.172044,12.0,40.0,0.0,0.0,10.000142,10.0,146.216,4.8E-5,-4.03E-4,283.23248,122.3882,-0.017849,-2.380373,-1586.8893,0.0
0.0,0.0,0.0,0.0,0.0,0.0,0.0,0.0,0.0,0.0,0.0,0.0,0.0,0.0,63.991837,-22.605427,146.216,0.104,5.243975,180.01152,44.427025,2.130709,-0.024394,-2.0E-6,7.495376,394.26035,6.365013,12.0,40.0,0.0,0.0,10.000142,10.0,146.216,4.7E-5,-3.02E-4,283.23248,120.49453,-0.017878,-2.38622,-1592.2023,0.0
0.0,0.0,0.0,0.0,0.0,0.0,0.0,0.0,0.0,0.0,0.0,0.0,0.0,0.0,63.991837,-22.605427,146.216,0.104102,5.244006,180.01152,43.304035,2.131575,-0.010568,-1.0E-6,7.519809,391.43533,3.540003,12.0,40.0,0.0,0.0,10.000142,10.0,146.216,4.6E-5,-2.68E-4,283.23248,118.78148,-0.017906,-2.39178,-1597.8395,0.0
0.0,0.0,0.0,0.0,0.0,0.0,0.0,0.0,0.0,0.0,0.0,0.0,0.0,0.0,63.991837,-22.605427,146.216,0.104201,5.244035,180.01154,42.182346,2.13326,0.00331,0.0,7.469223,388.60046,0.705117,12.0,40.0,0.0,0.0,1.42E-4,0.0,146.216,4.6E-5,-1.34E-4,283.23248,117.24885,-0.017933,-2.397069,-1603.4277,0.0
0.0,0.0,0.0,0.0,0.0,0.0,0.0,0.0,0.0,0.0,0.0,0.0,0.0,0.0,63.991837,-22.605427,146.216,0.104289,5.24406,180.01154,41.15602,2.135521,0.01882,1.0E-6,7.497145,385.9641,-1.931224,12.0,40.0,0.0,0.0,1.42E-4,0.0,146.216,4.5E-5,-6.7E-5,283.23248,116.00198,-0.01795,-2.401689,-1613.3296,0.0
0.0,0.0,0.0,0.0,0.0,0.0,0.0,0.0,0.0,0.0,0.0,0.0,0.0,0.0,63.991837,-22.605427,146.216,0.104373,5.244083,180.01155,40.132133,2.138466,0.035408,3.0E-6,7.476495,383.58002,-4.315322,12.0,40.0,0.0,0.0,1.42E-4,0.0,146.216,4.4E-5,0.0,283.23248,114.90561,-0.017975,-2.406102,-1613.8258,0.0
0.0,0.0,0.0,0.0,0.0,0.0,0.0,0.0,0.0,0.0,0.0,0.0,0.0,0.0,63.991837,-22.605427,146.216,0.104469,5.244109,180.01155,38.92615,2.142824,0.054519,4.0E-6,7.548095,380.6447,-7.250623,12.0,40.0,0.0,0.0,1.42E-4,0.0,146.216,4.3E-5,1.68E-4,283.23248,113.80266,-0.017997,-2.411063,-1619.0586,0.0
0.0,0.0,0.0,0.0,0.0,0.0,0.0,0.0,0.0,0.0,0.0,0.0,0.0,0.0,63.991837,-22.605427,146.216,0.104548,5.244128,180.01157,37.909863,2.14725,0.074632,5.0E-6,7.550965,378.20853,-9.686822,12.0,40.0,0.0,0.0,-9.999858,-10.0,146.216,4.2E-5,1.01E-4,283.23248,113.03116,-0.01802,-2.415056,-1621.2911,0.0
0.0,0.0,0.0,0.0,0.0,0.0,0.0,0.0,0.0,0.0,0.0,0.0,0.0,0.0,63.991837,-22.605427,146.216,0.10463,5.244148,180.01157,36.806297,2.152847,0.092971,6.0E-6,7.504838,375.50735,-12.387978,12.0,40.0,0.0,0.0,-9.999858,-10.0,146.216,4.1E-5,3.35E-4,283.23248,112.35689,-0.018042,-2.419207,-1625.2339,0.0
0.0,0.0,0.0,0.0,0.0,0.0,0.0,0.0,0.0,0.0,0.0,0.0,0.0,0.0,63.991837,-22.605427,146.216,0.104723,5.244169,180.01158,35.526558,2.160379,0.124238,8.0E-6,7.502998,372.30365,-15.591691,12.0,40.0,0.0,0.0,-9.999858,-10.0,146.216,4.0E-5,2.68E-4,283.23248,111.78819,-0.01807,-2.423794,-1631.5465,0.0
0.0,0.0,0.0,0.0,0.0,0.0,0.0,0.0,0.0,0.0,0.0,0.0,0.0,0.0,63.991837,-22.605427,146.216,0.1048,5.244184,180.01158,34.437115,2.167688,0.147058,9.0E-6,7.488922,369.6352,-18.26015,12.0,40.0,0.0,0.0,-19.999857,-20.0,146.216,4.0E-5,5.37E-4,283.23248,111.48475,-0.018091,-2.427519,-1633.5026,0.0
0.0,0.0,0.0,0.0,0.0,0.0,0.0,0.0,0.0,0.0,0.0,0.0,0.0,0.0,63.991837,-22.605427,146.21602,0.104874,5.244198,180.0116,33.35535,2.175776,0.181181,1.0E-5,7.58197,366.94833,-20.947012,12.0,40.0,0.0,0.0,-19.999857,-20.0,146.21602,3.9E-5,4.03E-4,283.23248,111.34826,-0.018112,-2.431061,-1636.0894,0.0
0.0,0.0,0.0,0.0,0.0,0.0,0.0,0.0,0.0,0.0,0.0,0.0,0.0,0.0,63.991837,-22.605427,146.21602,0.104945,5.24421,180.0116,32.28194,2.184633,0.210653,1.2E-5,7.600248,364.25162,-23.643732,12.0,40.0,0.0,0.0,-19.999857,-20.0,146.21602,3.8E-5,4.7E-4,283.23248,111.37569,-0.018131,-2.43443,-1638.8906,0.0
0.0,0.0,0.0,0.0,0.0,0.0,0.0,0.0,0.0,0.0,0.0,0.0,0.0,0.0,63.991837,-22.605427,146.21602,0.105014,5.24422,180.0116,31.217524,2.194252,0.234156,1.2E-5,7.548505,361.54803,-26.347305,12.0,40.0,0.0,0.0,-19.999857,-20.0,146.21602,3.7E-5,7.72E-4,283.23248,111.56373,-0.01815,-2.437634,-1641.7375,0.0
0.0,0.0,0.0,0.0,0.0,0.0,0.0,0.0,0.0,0.0,0.0,0.0,0.0,0.0,63.991837,-22.605427,146.21602,0.105081,5.244229,180.01161,30.162724,2.204622,0.272089,1.4E-5,7.603497,358.8464,-29.048937,12.0,40.0,0.0,0.0,-29.999857,-30.0,146.21602,3.7E-5,6.71E-4,283.23248,111.90883,-0.018168,-2.440682,-1644.3132,0.0
0.0,0.0,0.0,0.0,0.0,0.0,0.0,0.0,0.0,0.0,0.0,0.0,0.0,0.0,63.991837,-22.605427,146.21602,0.10513,5.244234,180.01161,29.37828,2.212885,0.29115,1.5E-5,7.637727,356.78738,-31.10795,12.0,40.0,0.0,0.0,-29.999857,-30.0,146.21602,3.6E-5,8.72E-4,283.23248,112.26845,-0.01818,-2.44287,-1647.4645,0.0
0.0,0.0,0.0,0.0,0.0,0.0,0.0,0.0,0.0,0.0,0.0,0.0,0.0,0.0,63.991837,-22.605427,146.21605,0.105847,5.244209,180.01167,19.559345,2.36041,0.544685,4.0E-6,2.192275,327.6389,-60.256466,12.0,40.0,0.0,0.0,-59.99986,-60.0,146.21605,2.9E-5,2.68E-4,283.23248,124.38422,-0.018361,-2.465385,-1532.5319,0.0
0.0,0.0,0.0,0.0,0.0,0.0,0.0,0.0,0.0,0.0,0.0,0.0,0.0,0.0,63.991837,-22.605427,146.21605,0.105869,5.244211,180.01167,18.500225,2.381816,0.525561,1.2E-5,6.029112,325.7877,-62.10767,12.0,40.0,0.0,0.0,-59.99986,-60.0,146.21605,2.9E-5,5.37E-4,283.23248,126.55573,-0.018368,-2.46735,-1488.6956,0.0
0.0,0.0,0.0,0.0,0.0,0.0,0.0,0.0,0.0,0.0,0.0,0.0,0.0,0.0,63.991837,-22.605427,146.21605,0.105903,5.244216,180.01167,17.607672,2.400802,0.485853,1.8E-5,7.163515,323.6436,-64.25175,12.0,40.0,0.0,0.0,-59.99986,-60.0,146.21605,2.8E-5,8.05E-4,283.23248,128.51924,-0.018375,-2.468946,-1477.9604,0.0
0.0,0.0,0.0,0.0,0.0,0.0,0.0,0.0,0.0,0.0,0.0,0.0,0.0,0.0,63.991837,-22.605427,146.21605,0.105953,5.244223,180.01169,16.72928,2.420362,0.458593,2.2E-5,7.548492,321.13776,-66.757576,12.0,40.0,0.0,0.0,-59.99986,-60.0,146.21605,2.8E-5,0.00104,283.23248,130.57104,-0.018383,-2.470464,-1483.7134,0.0
0.0,0.0,0.0,0.0,0.0,0.0,0.0,0.0,0.0,0.0,0.0,0.0,0.0,0.0,63.991837,-22.605427,146.21605,0.106017,5.244232,180.01169,15.865103,2.440483,0.448881,2.6E-5,7.685388,318.5046,-69.39074,12.0,40.0,0.0,0.0,-69.999855,-70.0,146.21605,2.7E-5,0.001208,283.23248,132.7053,-0.018392,-2.471907,-1494.5437,0.0
0.0,0.0,0.0,0.0,0.0,0.0,0.0,0.0,0.0,0.0,0.0,0.0,0.0,0.0,63.991837,-22.605427,146.21605,0.10609,5.244241,180.01169,15.015182,2.461151,0.44875,2.9E-5,7.739145,315.8266,-72.06875,12.0,40.0,0.0,0.0,-69.999855,-70.0,146.21605,2.7E-5,0.001409,283.23248,134.91618,-0.018402,-2.47328,-1506.4653,0.0
0.0,0.0,0.0,0.0,0.0,0.0,0.0,0.0,0.0,0.0,0.0,0.0,0.0,0.0,63.991837,-22.605427,146.21605,0.106171,5.244248,180.0117,14.179541,2.482353,0.453692,3.1E-5,7.764195,313.1328,-74.76254,12.0,40.0,0.0,0.0,-69.999855,-70.0,146.21605,2.6E-5,0.00151,283.23248,137.19777,-0.018413,-2.474586,-1518.1443,0.0
0.0,0.0,0.0,0.0,0.0,0.0,0.0,0.0,0.0,0.0,0.0,0.0,0.0,0.0,63.991837,-22.605427,146.21606,0.106257,5.244254,180.0117,13.358176,2.504074,0.460902,3.4E-5,7.779259,310.43344,-77.46191,12.0,40.0,0.0,0.0,-79.999855,-80.0,146.21606,2.6E-5,0.001711,283.23248,139.54414,-0.018425,-2.475828,-1529.1707,0.0
0.0,0.0,0.0,0.0,0.0,0.0,0.0,0.0,0.0,0.0,0.0,0.0,0.0,0.0,63.991837,-22.605427,146.21606,0.106347,5.244257,180.01172,12.551059,2.526302,0.469231,3.6E-5,7.79087,307.73212,-80.16324,12.0,40.0,0.0,0.0,-79.999855,-80.0,146.21606,2.5E-5,0.001744,283.23248,141.94937,-0.018437,-2.477009,-1539.4512,0.0
0.0,0.0,0.0,0.0,0.0,0.0,0.0,0.0,0.0,0.0,0.0,0.0,0.0,0.0,63.991837,-22.605427,146.21606,0.106441,5.244258,180.01172,11.758137,2.549024,0.477783,3.8E-5,7.801317,305.03006,-82.86527,12.0,40.0,0.0,0.0,-79.999855,-80.0,146.21606,2.5E-5,0.001879,283.23248,144.40752,-0.01845,-2.478132,-1548.9974,0.0
0.0,0.0,0.0,0.0,0.0,0.0,0.0,0.0,0.0,0.0,0.0,0.0,0.0,0.0,63.991837,-22.605427,146.21606,0.106554,5.244255,180.01173,10.850914,2.576139,0.481446,4.0E-5,7.812682,301.79898,-86.09636,12.0,40.0,0.0,0.0,-79.999855,-80.0,146.21606,2.4E-5,0.002147,283.23248,147.33434,-0.018468,-2.479374,-1562.5345,0.0
0.0,0.0,0.0,0.0,0.0,0.0,0.0,0.0,0.0,0.0,0.0,0.0,0.0,0.0,63.991837,-22.605427,146.21608,0.106638,5.24425,180.01173,10.214574,2.595896,0.488501,4.1E-5,7.690982,299.5372,-88.358154,12.0,40.0,0.0,0.0,-89.999855,-90.0,146.21608,2.4E-5,0.00208,283.23248,149.45892,-0.018476,-2.480218,-1569.4537,0.0
0.0,0.0,0.0,0.0,0.0,0.0,0.0,0.0,0.0,0.0,0.0,0.0,0.0,0.0,63.991837,-22.605427,146.21608,0.106739,5.244241,180.01175,9.463716,2.62002,0.500058,4.3E-5,7.775911,296.8919,-91.00345,12.0,40.0,0.0,0.0,-89.999855,-90.0,146.21608,2.3E-5,0.002214,283.23248,152.04044,-0.018491,-2.481184,-1574.4948,0.0
0.0,0.0,0.0,0.0,0.0,0.0,0.0,0.0,0.0,0.0,0.0,0.0,0.0,0.0,63.991837,-22.605427,146.21608,0.106841,5.244228,180.01176,8.771157,2.631282,0.434717,3.7E-5,7.818202,294.20953,-93.6858,12.0,40.0,0.0,0.0,-89.999855,-90.0,146.21608,2.3E-5,0.002214,283.23248,154.65138,-0.018506,-2.482104,-1580.6974,0.0
0.0,0.0,0.0,0.0,0.0,0.0,0.0,0.0,0.0,0.0,0.0,0.0,0.0,0.0,63.991837,-22.605427,146.21608,0.106947,5.244215,180.01176,8.133994,2.626986,0.302331,2.6E-5,7.831311,291.51413,-96.3812,12.0,40.0,0.0,0.0,-89.999855,-90.0,146.21608,2.2E-5,0.00161,283.23248,157.28601,-0.018521,-2.482979,-1586.9946,0.0
0.0,0.0,0.0,0.0,0.0,0.0,0.0,0.0,0.0,0.0,0.0,0.0,0.0,0.0,63.991837,-22.605427,146.21608,0.107058,5.244203,180.01178,7.494792,2.623016,0.205361,1.8E-5,7.836077,288.81412,-99.081215,12.0,40.0,0.0,0.0,-99.999855,-100.0,146.21608,2.2E-5,0.001006,283.23248,159.93863,-0.018536,-2.48381,-1593.0361,0.0
0.0,0.0,0.0,0.0,0.0,0.0,0.0,0.0,0.0,0.0,0.0,0.0,0.0,0.0,63.991837,-22.605427,146.21608,0.107173,5.244193,180.01178,6.853695,2.619372,0.13775,1.2E-5,7.83793,286.1125,-101.78286,12.0,40.0,0.0,0.0,-99.999855,-100.0,146.21608,2.1E-5,7.04E-4,283.23248,162.60362,-0.018552,-2.484601,-1598.7208,0.0
0.0,0.0,0.0,0.0,0.0,0.0,0.0,0.0,0.0,0.0,0.0,0.0,0.0,0.0,63.991837,-22.605427,146.2161,0.10731,5.244182,180.0118,6.103572,2.615538,0.084861,8.0E-6,7.838188,282.88147,-105.01389,12.0,40.0,0.0,0.0,-99.999855,-100.0,146.2161,2.1E-5,3.35E-4,283.23248,165.72108,-0.018574,-2.485476,-1608.0627,0.0
0.0,0.0,0.0,0.0,0.0,0.0,0.0,0.0,0.0,0.0,0.0,0.0,0.0,0.0,63.991837,-22.605427,146.2161,0.107389,5.244176,180.01181,5.673946,2.613548,0.064768,6.0E-6,7.77397,281.11914,-106.77621,12.0,40.0,0.0,0.0,-99.999855,-100.0,146.2161,2.1E-5,2.68E-4,283.23248,167.50336,-0.018584,-2.485953,-1609.6171,0.0
0.0,0.0,0.0,0.0,0.0,0.0,0.0,0.0,0.0,0.0,0.0,0.0,0.0,0.0,63.991837,-22.605427,146.2161,0.107529,5.244166,180.01181,4.920594,2.610421,0.040286,4.0E-6,7.753479,277.95462,-109.94072,12.0,40.0,0.0,0.0,-109.999855,-110.0,146.2161,2.0E-5,1.34E-4,283.23248,170.61815,-0.018602,-2.486751,-1615.2545,0.0
0.0,0.0,0.0,0.0,0.0,0.0,0.0,0.0,0.0,0.0,0.0,0.0,0.0,0.0,63.991837,-22.605427,146.2161,0.107669,5.244154,180.01183,4.165526,2.607747,0.026316,2.0E-6,7.747553,274.79822,-113.097145,12.0,40.0,0.0,0.0,-109.999855,-110.0,146.2161,2.0E-5,3.4E-5,283.23248,173.72057,-0.018625,-2.487503,-1620.1227,0.0
0.0,0.0,0.0,0.0,0.0,0.0,0.0,0.0,0.0,0.0,0.0,0.0,0.0,0.0,63.991837,-22.605427,146.2161,0.107788,5.244142,180.01184,3.517155,2.605816,0.019898,2.0E-6,7.805845,272.13065,-115.76471,12.0,40.0,0.0,0.0,-109.999855,-110.0,146.2161,1.9E-5,0.0,283.23248,176.3638,-0.018642,-2.488114,-1622.5834,0.0
0.0,0.0,0.0,0.0,0.0,0.0,0.2,0.0,0.0,0.0,0.0,0.0,0.0,0.0,63.991837,-22.605427,146.2161,0.107907,5.244128,180.01184,2.867884,2.604219,0.017624,2.0E-6,7.828063,269.44034,-118.454994,12.0,40.0,0.0,0.0,-119.999855,-120.0,146.2161,1.9E-5,-3.4E-5,283.23248,178.98705,-0.01866,-2.488694,-1625.7805,0.0
0.0,0.0,0.0,0.0,0.0,0.0,0.2,0.0,0.0,0.0,0.0,0.0,0.0,0.0,63.991837,-22.605427,146.2161,0.108006,5.244114,180.01186,2.326266,2.603144,0.018077,2.0E-6,7.834492,142.85623,-120.7817,12.0,40.0,0.0,0.0,-119.999855,-120.0,146.2161,1.9E-5,3.4E-5,283.23248,181.15437,-0.018671,-2.489157,-1631.6681,0.0
0.0,0.0,0.0,0.0,0.0,0.0,0.2,0.0,0.0,0.0,0.0,0.0,0.0,0.0,63.991837,-22.605427,146.2161,0.108046,5.244109,180.01186,2.109487,2.602779,0.017138,2.0E-6,7.76363,141.97922,-121.658714,12.0,40.0,0.0,0.0,-119.999855,-120.0,146.2161,1.8E-5,3.4E-5,283.23248,182.01587,-0.018678,-2.488029,-1631.7452,12.888187
0.0,0.0,0.0,0.0,0.0,0.0,0.2,0.0,0.0,0.0,0.0,0.0,0.0,0.0,63.991837,-22.605427,146.2161,0.10825,5.244058,180.01187,1.024699,2.60155,0.087538,1.0E-5,7.315411,137.11026,-126.52767,12.0,40.0,0.0,0.0,-119.999855,-120.0,146.2161,1.8E-5,5.7E-4,283.23248,186.26971,-0.018713,-2.45418,-1649.7382,71.54354
0.0,0.0,0.0,0.0,0.0,0.0,0.2,0.0,0.0,0.0,0.0,0.0,0.0,0.0,63.991837,-22.605427,146.2161,0.108355,5.243825,180.01189,0.26457,2.601321,0.106694,2.8E-5,7.547798,134.21513,-129.4228,12.0,40.0,0.0,0.0,-129.99986,-130.0,146.2161,1.7E-5,0.001979,283.23248,189.18651,-0.01875,-2.407028,-1641.7377,110.29614
0.0,0.0,0.0,0.0,0.0,0.0,0.2,0.0,0.0,0.0,0.0,0.0,0.0,0.0,63.991837,-22.605427,146.2161,0.108403,5.243386,180.01189,-0.387099,2.601515,0.104394,4.6E-5,7.736777,131.6186,-132.01932,12.0,40.0,0.0,0.0,-129.99986,-130.0,146.2161,1.7E-5,0.003422,283.23248,191.64087,-0.018778,-2.354499,-1639.9508,141.84354
0.0,0.0,0.0,0.0,0.0,0.0,0.2,0.0,0.0,0.0,0.0,0.0,0.0,0.0,63.991837,-22.605427,146.21611,0.108406,5.242688,180.01189,-1.038608,2.602051,0.102128,6.6E-5,7.804202,128.95328,-134.68466,12.0,40.0,0.0,0.0,-129.99986,-130.0,146.21611,1.7E-5,0.004998,283.23248,194.04872,-0.018803,-2.293005,-1640.987,171.7953
0.0,0.0,0.0,0.0,0.0,0.0,0.2,0.0,0.0,0.0,0.0,0.0,0.0,0.0,63.991837,-22.605427,146.21611,0.108368,5.241727,180.01189,-1.689762,2.602922,0.100622,8.5E-5,7.858003,126.24419,-137.39374,11.95363,39.845436,0.0,0.0,-129.99986,-130.0,146.21611,1.6E-5,0.006575,283.23248,196.40623,-0.018825,-2.224434,-1643.704,200.13806
0.0,0.0,0.0,0.0,0.0,0.0,0.2,0.0,0.0,0.0,0.0,0.0,0.0,0.0,63.991837,-22.605427,146.21613,0.108291,5.240511,180.01187,-2.340398,2.604122,0.099609,1.03E-4,7.824245,123.55873,-140.07921,11.807724,39.35908,0.0,0.0,-139.99986,-140.0,146.21613,1.6E-5,0.008017,283.23248,198.70973,-0.018843,-2.150486,-1645.2784,226.86813
0.0,0.0,0.0,0.0,0.0,0.0,0.2,0.0,0.0,0.0,0.0,0.0,0.0,0.0,63.991837,-22.605427,146.21614,0.108179,5.239059,180.01187,-2.990349,2.605647,0.098837,1.2E-4,7.83467,120.86206,-142.77588,11.617247,38.724155,0.0,0.0,-139.99986,-140.0,146.21614,1.6E-5,0.009326,283.23248,200.95572,-0.018857,-2.07268,-1647.1857,252.00005
0.0,0.0,0.0,0.0,0.0,0.0,0.2,0.0,0.0,0.0,0.0,0.0,0.0,0.0,63.991837,-22.605427,146.21616,0.108035,5.2374,180.01186,-3.63945,2.607493,0.098346,1.34E-4,7.838445,118.16143,-145.4765,11.408176,38.027252,0.0,0.0,-139.99986,-140.0,146.21616,1.5E-5,0.010466,283.23248,203.1409,-0.018866,-1.992362,-1649.1185,275.56296
0.0,0.0,0.0,0.0,0.0,0.0,0.2,0.0,0.0,0.0,0.0,0.0,0.0,0.0,63.991837,-22.605427,146.21617,0.107866,5.235566,180.01184,-4.287548,2.609656,0.097946,1.45E-4,7.869859,115.43989,-148.19804,11.182606,37.275352,0.0,0.0,-149.99986,-150.0,146.21617,1.5E-5,0.011405,283.23248,205.26213,-0.018869,-1.910713,-1651.7699,297.59763
0.0,0.0,0.0,0.0,0.0,0.0,0.2,0.0,0.0,0.0,0.0,0.0,0.0,0.0,63.991837,-22.605427,146.2162,0.107677,5.233593,180.01181,-4.934493,2.612137,0.097735,1.54E-4,7.82824,112.75001,-150.88792,10.942204,36.474014,0.0,0.0,-149.99986,-150.0,146.2162,1.5E-5,0.012143,283.23248,207.31648,-0.018868,-1.828762,-1652.9736,318.15387
0.0,0.0,0.0,0.0,0.0,0.0,0.2,0.0,0.0,0.0,0.0,0.0,0.0,0.0,63.991837,-22.605427,146.21622,0.107472,5.231518,180.0118,-5.580135,2.614934,0.097595,1.6E-4,7.835804,110.05174,-153.58618,10.6889,35.629665,0.0,0.0,-149.99986,-150.0,146.21622,1.5E-5,0.012714,283.23248,209.30122,-0.018862,-1.747388,-1654.422,337.2883
0.0,0.0,0.0,0.0,0.0,0.0,0.2,0.0,0.0,0.0,0.0,0.0,0.0,0.0,63.991837,-22.605427,146.21623,0.107258,5.229374,180.01178,-6.224327,2.618047,0.097544,1.63E-4,7.838505,107.350525,-156.28741,10.424414,34.74804,1.0E-6,0.0,-149.99986,-150.0,146.21623,1.4E-5,0.012948,283.23248,211.21378,-0.018852,-1.667329,-1655.8868,355.06244
0.0,0.0,0.0,0.0,0.0,0.0,0.2,0.0,0.0,0.0,0.0,0.0,0.0,0.0,63.991837,-22.605427,146.21626,0.107038,5.227193,180.01176,-6.866923,2.621477,0.097594,1.65E-4,7.839328,104.64825,-158.98969,10.150365,33.834534,4.0E-6,0.0,-159.99986,-160.0,146.21626,1.4E-5,0.013083,283.23242,213.05182,-0.018838,-1.58919,-1657.2925,371.54114
0.0,0.0,0.0,0.0,0.0,0.0,0.2,0.0,0.0,0.0,0.0,0.0,0.0,0.0,63.991837,-22.605427,146.21628,0.106856,5.225368,180.01173,-7.401091,2.624577,0.097709,1.65E-4,7.766473,102.34068,-161.29724,9.916263,33.054176,1.0E-5,0.0,-159.99986,-160.0,146.21628,1.4E-5,0.013049,283.23233,214.52501,-0.018827,-1.52589,-1660.493,384.33197
0.0,0.0,0.0,0.0,0.0,0.0,0.2,0.0,0.0,0.0,0.0,0.0,0.0,0.0,63.991837,-22.605427,146.21631,0.106602,5.222828,180.01172,-8.146739,2.629288,0.097948,1.63E-4,7.794135,99.13643,-164.50151,9.580522,31.934977,2.9E-5,1.0E-6,-159.99986,-160.0,146.21631,1.3E-5,0.012982,283.2321,216.49583,-0.018801,-1.440467,-1663.8076,400.88043
0.0,0.0,0.0,0.0,0.0,0.0,0.2,0.0,0.0,0.0,0.0,0.0,0.0,0.0,63.991837,-22.605427,146.21631,0.106497,5.221754,180.0117,-8.465472,2.631439,0.098088,1.62E-4,7.737278,97.74985,-165.88808,9.434494,31.448168,4.4E-5,1.0E-6,-159.99986,-160.0,146.21631,1.3E-5,0.012848,283.23187,217.30711,-0.018793,-1.405089,-1665.6216,407.51086
0.0,0.0,0.0,0.0,0.0,0.0,0.2,0.0,0.0,0.0,0.0,0.0,0.0,0.0,63.991837,-22.605427,146.21634,0.106229,5.21895,180.01169,-9.312817,2.637563,0.098504,1.57E-4,7.457793,93.987595,-169.65034,9.040928,30.13602,1.23E-4,3.0E-6,-169.99986,-170.0,146.21634,1.3E-5,0.012378,283.2307,219.37068,-0.018763,-1.314555,-1672.2051,423.91983
0.0,0.0,0.0,0.0,0.0,0.0,0.2,0.0,0.0,0.0,0.0,0.0,0.0,0.0,63.991837,-22.605427,146.21635,0.106036,5.21692,180.01166,-9.945692,2.642527,0.098968,1.52E-4,7.648665,91.479034,-172.15889,8.740376,29.133768,2.47E-4,5.0E-6,-169.99986,-170.0,146.21635,1.3E-5,0.012009,283.22894,220.82149,-0.018739,-1.250344,-1665.0244,435.09662
0.0,0.0,0.0,0.0,0.0,0.0,0.2,0.0,0.0,0.0,0.0,0.0,0.0,0.0,63.991837,-22.605427,146.21638,0.105856,5.214969,180.01164,-10.576113,2.647806,0.09965,1.47E-4,7.771597,88.84452,-174.79341,8.437853,28.124605,4.74E-4,1.0E-5,-169.99986,-170.0,146.21638,1.2E-5,0.01154,283.22568,222.1879,-0.018713,-1.189247,-1663.1731,445.3809
0.0,0.0,0.0,0.0,0.0,0.0,0.2,0.0,0.0,0.0,0.0,0.0,0.0,0.0,63.991837,-22.605427,146.2164,0.105667,5.212802,180.01163,-11.308354,2.654366,0.100595,1.4E-4,7.745043,85.66189,-177.97604,8.084043,26.943634,9.59E-4,1.9E-5,-179.99986,-180.0,146.2164,1.2E-5,0.010936,283.2187,223.67398,-0.018677,-1.121729,-1665.317,456.33115
0.0,0.0,0.0,0.0,0.0,0.0,0.2,0.0,0.0,0.0,0.0,0.0,0.0,0.0,63.991837,-22.605427,146.21642,0.105523,5.211045,180.01161,-11.933076,2.66033,0.101518,1.34E-4,7.795828,83.001915,-180.63602,7.780729,25.930193,0.001681,3.4E-5,-179.99986,-180.0,146.21642,1.2E-5,0.010399,283.2083,224.8542,-0.018649,-1.066916,-1664.424,464.8845
0.0,0.0,0.0,0.0,0.0,0.0,0.2,0.0,0.0,0.0,0.0,0.0,0.0,0.0,63.991837,-22.605427,146.21643,0.105405,5.209517,180.0116,-12.503249,2.666074,0.102153,1.28E-4,7.786048,80.56183,-183.0761,7.503649,25.003113,0.002732,5.5E-5,-179.99986,-180.0,146.21643,1.2E-5,0.010198,283.19318,225.85963,-0.018621,-1.019027,-1663.7006,472.09924
0.0,0.0,0.0,0.0,0.0,0.0,0.2,0.0,0.0,0.0,0.0,0.0,0.0,0.0,63.991837,-22.605427,146.21646,0.105284,5.207816,180.0116,-13.173855,2.673204,0.1036,1.21E-4,7.846653,77.58714,-186.05078,7.178632,23.913233,0.00469,9.5E-5,-179.99986,-180.0,146.21646,1.1E-5,0.009527,283.16498,226.95311,-0.018593,-0.965193,-1666.423,479.90997
0.0,0.0,0.0,0.0,0.0,0.0,0.2,0.0,0.0,0.0,0.0,0.0,0.0,0.0,63.991837,-22.605427,146.21646,0.105203,5.206757,180.01158,-13.584658,2.67799,0.1134,1.68E-4,7.810149,75.801254,-187.83667,6.977062,23.23554,0.006439,1.3E-4,-189.99986,-190.0,146.21646,1.1E-5,0.012378,283.13977,227.57486,-0.018606,-0.933489,-1666.2544,522.63586
0.0,0.0,0.0,0.0,0.0,0.0,0.2,0.0,0.0,0.0,0.0,0.0,0.0,0.0,63.991837,-22.605427,146.2165,0.104747,5.203321,180.01154,-14.298468,2.687495,0.105877,3.59E-4,7.762513,72.61992,-191.018,6.593945,21.94324,0.01104,2.23E-4,-189.99986,-190.0,146.2165,1.1E-5,0.027306,283.07346,228.56902,-0.018685,-0.880506,-1668.017,601.1248
0.0,0.0,0.0,0.0,0.0,0.0,0.2,0.0,0.0,0.0,0.0,0.0,0.0,0.0,63.991837,-22.605427,146.21657,0.103935,5.197834,180.01147,-14.905274,2.696114,0.100392,5.3E-4,7.808518,69.9453,-193.69264,6.237915,20.735186,0.017465,3.52E-4,-189.99986,-190.0,146.21657,3.5E-5,0.041328,282.98074,229.32611,-0.018746,-0.837508,-1667.493,661.54236
0.0,0.0,0.0,0.0,0.0,0.0,0.2,0.0,0.0,0.0,0.0,0.0,0.0,0.0,63.991837,-22.605427,146.21664,0.102801,5.190066,180.01137,-15.508283,2.704855,0.097271,6.67E-4,7.826205,67.252266,-196.38567,5.866507,19.463465,0.027633,5.54E-4,-189.99986,-190.0,146.21664,1.06E-4,0.052733,282.83377,229.9957,-0.018761,-0.796625,-1667.7101,715.2945
0.0,0.0,0.0,0.0,0.0,0.0,0.2,0.0,0.0,0.0,0.0,0.0,0.0,0.0,63.991837,-22.605427,146.21674,0.101446,5.180526,180.01125,-16.108057,2.713617,0.095281,7.59E-4,7.8322,64.552765,-199.08516,5.488414,18.150013,0.043671,8.7E-4,-199.99986,-200.0,146.21674,1.91E-4,0.06065,282.60147,230.57819,-0.018726,-0.757747,-1668.1583,762.365
0.0,0.0,0.0,0.0,0.0,0.0,0.2,0.0,0.0,0.0,0.0,0.0,0.0,0.0,63.991837,-22.605427,146.21684,0.099966,5.169843,180.01111,-16.704847,2.722389,0.09388,8.06E-4,7.834004,61.850986,-201.78694,5.112793,16.814938,0.068719,0.001357,-199.99986,-200.0,146.21684,2.85E-4,0.064776,282.23773,231.07417,-0.018646,-0.720775,-1668.6602,802.93835
0.0,0.0,0.0,0.0,0.0,0.0,0.2,0.0,0.0,0.0,0.0,0.0,0.0,0.0,63.991837,-22.605427,146.21695,0.098445,5.15871,180.01097,-17.295486,2.73169,0.082978,7.99E-4,7.834373,59.148396,-204.48953,4.752732,15.487117,0.107226,0.002095,-199.99986,-200.0,146.21695,3.83E-4,0.064272,281.67673,231.48438,-0.018527,-0.68561,-1669.155,837.3373
0.0,0.0,0.0,0.0,0.0,0.0,0.2,0.0,0.0,0.0,0.0,0.0,0.0,0.0,63.991837,-22.605427,146.21706,0.096934,5.149384,180.01076,-17.863234,2.744287,0.042835,6.83E-4,7.83514,56.445507,-207.19243,4.424339,14.201229,0.164926,0.003187,-199.99986,-200.0,146.21706,5.2E-4,0.052397,280.83307,231.8097,-0.018286,-0.652176,-1669.6235,865.9737
0.0,0.0,0.0,0.0,0.0,0.0,0.2,0.0,0.0,0.0,0.0,0.0,0.0,0.0,63.991837,-22.605427,146.21713,0.095538,5.143006,180.0106,-18.401709,2.760025,0.022241,6.11E-4,7.824395,53.728714,-209.90921,4.136312,12.962392,0.249022,0.004756,-209.99986,-210.0,146.21713,7.6E-4,0.044045,279.59875,232.05116,-0.01792,-0.620366,-1670.6011,889.3123
0.0,0.0,0.0,0.0,0.0,0.0,0.2,0.0,0.0,0.0,0.0,0.0,0.0,0.0,63.991837,-22.605427,146.2172,0.094266,5.138975,180.01039,-18.918383,2.77845,0.014176,6.15E-4,7.83061,51.03457,-212.60336,3.898368,11.774044,0.36824,0.006951,-209.99986,-210.0,146.2172,0.001158,0.03747,277.8411,232.20999,-0.017615,-0.590115,-1670.6262,907.8439
0.0,0.0,0.0,0.0,0.0,0.0,0.2,0.0,0.0,0.0,0.0,0.0,0.0,0.0,63.991837,-22.605427,146.21725,0.093129,5.136586,180.01016,-19.414064,2.799023,0.010636,6.67E-4,7.826882,48.320816,-215.31711,3.721256,10.639024,0.53253,0.009936,-209.99986,-210.0,146.21725,0.001756,0.034719,275.4055,232.2875,-0.017254,-0.561342,-1671.4092,922.0638
0.0,0.0,0.0,0.0,0.0,0.0,0.2,0.0,0.0,0.0,0.0,0.0,0.0,0.0,63.991837,-22.605427,146.2173,0.092148,5.135286,180.00992,-19.891403,2.821265,0.009063,7.68E-4,7.823901,45.61393,-218.024,3.615943,9.559453,0.752271,0.01388,-219.99986,-220.0,146.2173,0.002585,0.033478,272.12402,232.28514,-0.016821,-0.533973,-1671.87,932.4581
0.0,0.0,0.0,0.0,0.0,0.0,0.2,0.0,0.0,0.0,0.0,0.0,0.0,0.0,63.991837,-22.605427,146.21736,0.091332,5.134675,180.00961,-20.353783,2.844755,0.008207,8.91E-4,7.82557,42.90945,-220.72849,3.592265,8.536999,1.036845,0.018931,-219.99986,-220.0,146.21736,0.003668,0.039382,267.83282,232.2045,-0.016236,-0.507949,-1672.2018,939.49286
0.0,0.0,0.0,0.0,0.0,0.0,0.2,0.0,0.0,0.0,0.0,0.0,0.0,0.0,63.991837,-22.605427,146.21744,0.090686,5.134459,180.00928,-20.803167,2.869094,0.007797,0.001042,7.829028,40.20581,-223.43211,3.656731,7.57289,1.392418,0.02518,-219.99986,-220.0,146.21744,0.005017,0.041227,262.4004,232.04729,-0.015508,-0.483198,-1672.4735,943.60736
0.0,0.0,0.0,0.0,0.0,0.0,0.2,0.0,0.0,0.0,0.0,0.0,0.0,0.0,63.991837,-22.605427,146.2175,0.090207,5.134452,180.0089,-21.242247,2.893949,0.007378,0.001176,7.833168,37.50246,-226.13547,3.809656,6.667956,1.819053,0.032616,-219.99986,-220.0,146.2175,0.006639,0.049445,255.76753,231.81534,-0.014728,-0.459657,-1672.7103,945.20984
0.0,0.0,0.0,0.0,0.0,0.0,0.2,0.0,0.0,0.0,0.0,0.0,0.0,0.0,63.991837,-22.605427,146.21759,0.089876,5.134535,180.0085,-21.673487,2.919038,0.007234,0.00134,7.849883,34.812992,-228.82494,4.042062,5.822628,2.307595,0.041072,-229.99986,-230.0,146.21759,0.008531,0.051592,247.99495,231.51057,-0.01393,-0.437267,-1672.3821,944.6759
0.0,0.0,0.0,0.0,0.0,0.0,0.2,0.0,0.0,0.0,0.0,0.0,0.0,0.0,63.991837,-22.605427,146.21768,0.08968,5.134602,180.00807,-22.09868,2.944115,0.007182,0.001513,7.89291,32.095097,-231.54283,4.333393,5.036944,2.837368,0.050194,-229.99986,-230.0,146.21768,0.010688,0.055349,239.30804,231.13504,-0.013129,-0.415971,-1673.1971,942.347
0.0,0.0,0.0,0.0,0.0,0.0,0.2,0.0,0.0,0.0,0.0,0.0,0.0,0.0,63.991837,-22.605427,146.21777,0.089621,5.134624,180.00764,-22.519852,2.968988,0.00707,0.001666,7.888309,29.382288,-234.25565,4.651541,4.310601,3.376195,0.059445,-229.99986,-230.0,146.21777,0.013098,0.061521,230.12029,230.6909,-0.012336,-0.395714,-1673.7739,938.532
0.0,0.0,0.0,0.0,0.0,0.0,0.2,0.0,0.0,0.0,0.0,0.0,0.0,0.0,63.991837,-22.605427,146.21788,0.089679,5.134563,180.00719,-22.938189,2.993492,0.007033,0.001825,7.856484,26.69964,-236.9383,4.956713,3.643052,3.884249,0.068171,-229.99986,-230.0,146.21788,0.015746,0.068901,221.01158,230.18037,-0.011569,-0.376447,-1673.0951,933.5077
0.0,0.0,0.0,0.0,0.0,0.0,0.2,0.0,0.0,0.0,0.0,0.0,0.0,0.0,63.991837,-22.605427,146.218,0.089833,5.134408,180.00673,-23.35531,3.01751,0.006991,0.001972,7.87276,24.003656,-239.63428,5.209507,3.033642,4.322135,0.075734,-239.99986,-240.0,146.218,0.018616,0.072055,212.64368,229.60577,-0.010841,-0.358122,-1672.9684,927.52045
0.0,0.0,0.0,0.0,0.0,0.0,0.2,0.0,0.0,0.0,0.0,0.0,0.0,0.0,63.991837,-22.605427,146.21812,0.090077,5.134152,180.00621,-23.772058,3.040945,0.006974,0.002116,7.868574,21.289188,-242.34874,5.381415,2.48181,4.661376,0.081682,-239.99986,-240.0,146.21812,0.021686,0.077757,205.61714,228.96953,-0.01016,-0.340698,-1673.5643,920.7883
0.0,0.0,0.0,0.0,0.0,0.0,0.2,0.0,0.0,0.0,0.0,0.0,0.0,0.0,63.991837,-22.605427,146.21826,0.090392,5.133806,180.00566,-24.18939,3.063586,0.006948,0.002246,5.437839,19.822098,-243.81583,5.463358,1.98726,4.892946,0.085888,-239.99986,-240.0,146.21826,0.024937,0.085036,200.31076,228.27412,-0.009529,-0.324131,-1624.6041,913.50977
0.0,0.0,0.0,0.0,0.0,0.0,0.2,0.0,0.0,0.0,0.0,0.0,0.0,0.0,63.991837,-22.605427,146.2184,0.090734,5.133414,180.00508,-24.56895,3.083624,0.006925,0.002354,4.013977,19.326275,-244.31166,5.469419,1.584231,5.020666,0.088387,-239.99986,-240.0,146.2184,0.028057,0.085473,197.0065,227.58685,-0.008943,-0.309659,-1546.0802,906.5049
0.0,0.0,0.0,0.0,0.0,0.0,0.2,0.0,0.0,0.0,0.0,0.0,0.0,0.0,63.991837,-22.605427,146.21855,0.091174,5.132874,180.00443,-25.027893,3.106738,0.006865,0.002457,3.22932,19.110708,-244.52722,5.419658,1.170088,5.095674,0.090138,-239.99986,-240.0,146.21855,0.031892,0.095368,194.74094,226.71603,-0.008403,-0.293402,-1438.1454,897.9724
0.0,0.0,0.0,0.0,0.0,0.0,0.2,0.0,0.0,0.0,0.0,0.0,0.0,0.0,63.991837,-22.605427,146.2187,0.091589,5.132364,180.0038,-25.41079,3.125447,0.006915,0.00257,2.961627,19.042358,-244.59557,5.355162,0.872436,5.120737,0.091021,-239.99986,-240.0,146.2187,0.035243,0.091142,193.81085,225.93199,-0.00791,-0.280317,-1341.9012,890.64923
0.0,0.0,0.0,0.0,0.0,0.0,0.2,0.0,0.0,0.0,0.0,0.0,0.0,0.0,63.991837,-22.605427,146.21886,0.092064,5.131769,180.00313,-25.834953,3.145277,0.006922,0.002665,2.848858,19.00918,-244.62875,5.282816,0.602891,5.129461,0.091705,-239.99986,-240.0,146.21886,0.038989,0.096274,193.38751,225.02992,-0.007462,-0.266717,-1234.9968,882.6547
0.0,0.0,0.0,0.0,0.0,0.0,0.2,0.0,0.0,0.0,0.0,0.0,0.0,0.0,63.991833,-22.605427,146.21904,0.0926,5.131098,180.00238,-26.301167,3.16608,0.0069,0.002743,2.809323,18.99058,-244.64735,5.216043,0.375671,5.131044,0.092339,-239.99986,-240.0,146.21904,0.043128,0.103151,193.24759,224.00076,-0.007052,-0.252737,-1118.3209,874.0899
0.0,0.0,0.0,0.0,0.0,0.0,0.2,0.0,0.0,0.0,0.0,0.0,0.0,0.0,63.991833,-22.605427,146.2192,0.093065,5.130507,180.00172,-26.690868,3.182876,0.006927,0.002818,2.798381,18.980072,-244.65787,5.173602,0.235776,5.130724,0.09285,-239.99986,-240.0,146.2192,0.046678,0.101406,193.21956,223.09029,-0.006694,-0.241485,-1019.30927,866.9904
0.0,0.0,0.0,0.0,0.0,0.0,0.2,0.0,0.0,0.0,0.0,0.0,0.0,0.0,63.991833,-22.605427,146.21939,0.093605,5.129799,180.00096,-27.162369,3.202267,0.006883,0.002864,2.795437,18.969364,-244.66856,5.141572,0.131903,5.130029,0.093423,-239.99986,-240.0,146.21939,0.050909,0.107679,193.21295,221.97061,-0.006373,-0.228841,-902.196,858.84454
-0.007828,-0.031754,0.0,0.0,0.0,0.0,0.059525,0.0,0.0,0.0,0.0,0.0,0.0,0.0,63.991833,-22.605427,146.21956,0.094166,5.129895,180.00026,-27.609688,3.217837,0.006612,0.002777,2.793679,18.960297,-244.67763,5.130071,0.094832,5.129816,0.093982,-239.99986,-240.0,146.21956,0.054816,0.102513,193.21167,220.89801,-0.006068,-0.217757,-794.0411,819.7123
-0.007828,-0.031754,0.0,0.0,0.0,0.0,0.142855,0.0,0.0,0.0,0.0,0.0,0.0,0.0,63.991833,-22.605427,146.21973,0.094991,5.129937,179.99963,-27.749744,3.219979,0.006646,0.002772,2.789837,18.95158,-244.68636,5.129969,0.09477,5.129969,0.09477,-239.99986,-240.0,146.21973,0.058649,0.102413,193.21094,219.79086,-0.005861,-0.207193,-685.86633,797.28534
-0.007828,-0.031754,0.0,0.0,0.0,0.0,0.226184,0.0,0.0,0.0,0.0,0.0,0.0,0.0,63.991833,-22.605427,146.2199,0.095884,5.129482,179.99907,-27.77293,3.217442,0.006701,0.002764,2.785441,18.943325,-244.69461,5.129585,0.095702,5.129585,0.095702,-239.99986,-240.0,146.2199,0.062358,0.10352,193.21033,218.65205,-0.005813,-0.197139,-577.65674,791.47186
-0.007828,-0.031754,0.0,0.0,0.0,0.0,0.246021,0.0,0.0,0.0,0.0,0.0,0.0,0.0,63.991833,-22.605427,146.22006,0.096646,5.12893,179.99852,-27.801336,3.214389,0.006742,0.002742,2.782051,18.935198,-244.70273,5.129038,0.096505,5.129038,0.096505,-239.99986,-240.0,146.22006,0.065932,0.099763,193.20976,217.48447,-0.005837,-0.187576,-469.4464,786.5851
-0.007828,-0.031754,0.0,0.0,0.0,0.0,0.269841,0.0,0.0,0.0,0.0,0.0,0.0,0.0,63.991833,-22.605427,146.22021,0.097256,5.128382,179.99796,-27.833647,3.210934,0.006758,0.002705,2.777578,18.92715,-244.71078,5.128487,0.097144,5.128487,0.097144,-239.99986,-240.0,146.22021,0.069364,0.101943,193.20921,216.29099,-0.005888,-0.178485,-361.2448,783.10345
-0.007828,-0.031754,0.0,0.0,0.0,0.0,0.293645,0.0,0.0,0.0,0.0,0.0,0.0,0.0,63.991833,-22.605427,146.22038,0.097731,5.127878,179.9974,-27.86835,3.207216,0.006728,0.002646,2.773748,18.919083,-244.71884,5.127974,0.097643,5.127974,0.097643,-239.99986,-240.0,146.22038,0.072648,0.098387,193.20865,215.07451,-0.005958,-0.169841,-253.09026,781.1824
-0.007828,-0.031754,0.0,0.0,0.0,0.0,0.309514,0.0,0.0,0.0,0.0,0.0,0.0,0.0,63.991833,-22.605427,146.22054,0.098065,5.127492,179.9969,-27.89809,3.203622,0.006799,0.002629,2.768959,18.911804,-244.72612,5.127571,0.097994,5.127571,0.097994,-239.99986,-240.0,146.22054,0.075528,0.092886,193.20815,213.94164,-0.006047,-0.162289,-153.979,780.8849
-0.007828,-0.031754,0.0,0.0,0.0,0.0,0.309514,0.0,0.0,0.0,0.0,0.0,0.0,0.0,63.991833,-22.605427,146.22069,0.098326,5.127165,179.99635,-27.933468,3.199843,0.006763,0.002567,2.764575,18.903791,-244.73415,5.127223,0.098274,5.127223,0.098274,-239.99986,-240.0,146.22069,0.07853,0.094328,193.20761,212.68906,-0.006135,-0.154439,-46.086323,782.1813
-0.007828,-0.031754,0.0,0.0,0.0,0.0,0.309514,0.0,0.0,0.0,0.0,0.0,0.0,0.0,63.991833,-22.605427,146.22084,0.098488,5.126966,179.99582,-27.966923,3.196256,0.006785,0.00253,2.760514,18.89574,-244.74219,5.126998,0.098454,5.126998,0.098454,-239.99986,-240.0,146.22084,0.081391,0.091779,193.20706,211.42178,-0.006221,-0.146976,-10.442424,784.98444
-0.007828,-0.031754,0.0,0.0,0.0,0.0,0.309514,0.0,0.0,0.0,0.0,0.0,0.0,0.0,63.991833,-22.605427,146.22101,0.098573,5.126894,179.99525,-28.002718,3.192833,0.006748,0.002472,2.757128,18.886932,-244.751,5.126899,0.09856,5.126899,0.09856,-239.99986,-240.0,146.22101,0.084341,0.093389,193.2065,210.03557,-0.006304,-0.139304,-14.454728,789.4236
-0.007828,-0.031754,0.0,0.0,0.0,0.0,0.309514,0.0,0.0,0.0,0.0,0.0,0.0,0.0,63.991833,-22.605427,146.22116,0.098577,5.126966,179.99472,-28.028574,3.190051,0.006763,0.002442,2.753425,18.878922,-244.759,5.126945,0.098578,5.126945,0.098578,-239.99986,-240.0,146.22116,0.086939,0.092047,193.20595,208.74664,-0.006383,-0.132584,-14.173949,794.5636
-0.007828,-0.031754,0.0,0.0,0.0,0.0,0.317449,0.0,0.0,0.0,0.0,0.0,0.0,0.0,63.991833,-22.605427,146.2213,0.098526,5.12714,179.9942,-28.04475,3.187876,0.006823,0.002437,2.751254,18.87164,-244.7663,5.1271,0.098534,5.1271,0.098534,-239.99986,-240.0,146.2213,0.089227,0.087418,193.20544,207.55965,-0.006445,-0.126713,-10.636775,799.9715
-0.007828,-0.031754,0.0,0.0,0.0,0.0,0.35317,0.0,0.0,0.0,0.0,0.0,0.0,0.0,63.991833,-22.605427,146.22145,0.098391,5.127469,179.99364,-28.064232,3.186161,0.006829,0.002417,2.748835,18.86285,-244.77509,5.127409,0.098414,5.127409,0.098414,-239.99986,-240.0,146.22145,0.091831,0.087686,193.20486,206.153,-0.006489,-0.12012,-14.244247,807.1767
-0.007828,-0.031754,0.0,0.0,0.0,0.0,0.392844,0.0,0.0,0.0,0.0,0.0,0.0,0.0,63.991833,-22.605427,146.22159,0.098236,5.127841,179.9931,-28.068886,3.185175,0.006836,0.002409,2.747467,18.855597,-244.78233,5.127766,0.098263,5.127766,0.098263,-239.99986,-240.0,146.22159,0.093964,0.084332,193.20435,204.96187,-0.006516,-0.114813,-10.31526,814.1709
-0.007828,-0.031754,0.0,0.0,0.0,0.0,0.412695,0.0,0.0,0.0,0.0,0.0,0.0,0.0,63.991833,-22.605427,146.22174,0.098016,5.128355,179.99254,-28.069769,3.184983,0.006802,0.002396,2.747115,18.847519,-244.79042,5.128262,0.09805,5.128262,0.09805,-239.99986,-240.0,146.22174,0.096237,0.087519,193.20378,203.664,-0.006524,-0.1093,-10.532189,823.22235
-0.007828,-0.031754,0.0,0.0,0.0,0.0,0.4365,0.0,0.0,0.0,0.0,0.0,0.0,0.0,63.991833,-22.605427,146.22188,0.097744,5.128985,179.99194,-28.06122,3.185775,0.006826,0.002415,2.747792,18.839464,-244.79846,5.128874,0.097787,5.128874,0.097787,-239.99986,-240.0,146.22188,0.098473,0.086076,193.20319,202.37021,-0.006507,-0.104062,-10.510869,833.9494
-0.007828,-0.031754,0.0,0.0,0.0,0.0,0.460304,0.0,0.0,0.0,0.0,0.0,0.0,0.0,63.991833,-22.605427,146.22205,0.09738,5.129823,179.99129,-28.042645,3.188065,0.006819,0.002442,2.750689,18.830647,-244.80728,5.129688,0.097437,5.129688,0.097437,-239.99986,-240.0,146.22205,0.100882,0.091645,193.20253,200.9761,-0.006461,-0.098684,-14.365671,847.58374
-0.007828,-0.031754,0.0,0.0,0.0,0.0,0.484123,0.0,0.0,0.0,0.0,0.0,0.0,0.0,63.991833,-22.605427,146.22218,0.097021,5.130681,179.99066,-28.008759,3.191087,0.006844,0.002493,2.753372,18.823378,-244.81456,5.130526,0.097081,5.130526,0.097081,-239.99986,-240.0,146.22218,0.102937,0.089599,193.20192,199.80478,-0.006375,-0.09436,-10.405237,860.7513
-0.007828,-0.031754,0.0,0.0,0.0,0.0,0.496025,0.0,0.0,0.0,0.0,0.0,0.0,0.0,63.991833,-22.605427,146.22234,0.096509,5.131883,179.98991,-27.959799,3.196612,0.00683,0.00256,2.759617,18.814611,-244.82332,5.131704,0.096583,5.131704,0.096583,-239.99986,-240.0,146.22234,0.105423,0.094597,193.20117,198.43292,-0.006241,-0.089515,-14.170712,878.2724
-0.007828,-0.031754,0.0,0.0,0.0,0.0,0.50782,0.0,0.0,0.0,0.0,0.0,0.0,0.0,63.991833,-22.605427,146.22249,0.096008,5.133071,179.9892,-27.896904,3.202656,0.006873,0.002658,2.766229,18.807375,-244.83055,5.132872,0.096086,5.132872,0.096086,-239.99986,-240.0,146.22249,0.107606,0.093322,193.20045,197.28465,-0.006055,-0.085624,-10.258917,881.48376
-0.007828,-0.031754,0.0,0.0,0.0,0.0,0.515633,0.0,0.0,0.0,0.0,0.0,0.0,0.0,63.991833,-22.605427,146.22264,0.095631,5.1339,179.98845,-27.85928,3.205991,0.006733,0.002649,2.771131,18.799314,-244.83862,5.13384,0.095655,5.13384,0.095655,-239.99986,-240.0,146.22264,0.110064,0.092047,193.19969,196.04724,-0.005732,-0.081568,-10.470498,832.7457
-0.007828,-0.031754,0.0,0.0,0.0,0.0,0.523445,0.0,0.0,0.0,0.0,0.0,0.0,0.0,63.991833,-22.605427,146.22281,0.095815,5.133419,179.98781,-27.860538,3.205215,0.006761,0.002653,2.771052,18.791285,-244.84665,5.133543,0.095758,5.133543,0.095758,-239.99986,-240.0,146.22281,0.112503,0.094496,193.19904,194.82777,-0.005532,-0.077678,-10.437716,801.1105
-0.007828,-0.031754,0.0,0.0,0.0,0.0,0.523445,0.0,0.0,0.0,0.0,0.0,0.0,0.0,63.991833,-22.605427,146.22299,0.096286,5.132345,179.98718,-27.86626,3.205035,0.006876,0.002695,2.77057,18.782534,-244.8554,5.132464,0.096229,5.132464,0.096229,-239.99986,-240.0,146.22299,0.115067,0.102782,193.19841,193.52933,-0.005559,-0.073669,-14.145472,834.9177
-0.007828,-0.031754,0.0,0.0,0.0,0.0,0.531258,0.0,0.0,0.0,0.0,0.0,0.0,0.0,63.991833,-22.605427,146.22314,0.096404,5.132186,179.98654,-27.839033,3.20769,0.00696,0.002765,2.773387,18.77527,-244.86266,5.132173,0.096396,5.132173,0.096396,-239.99986,-240.0,146.22314,0.117221,0.097414,193.1978,192.45085,-0.005599,-0.070462,-10.575953,864.2944
-0.007828,-0.031754,0.0,0.0,0.0,0.0,0.531258,0.0,0.0,0.0,0.0,0.0,0.0,0.0,63.991833,-22.605427,146.22333,0.096081,5.133028,179.9857,-27.779959,3.21473,0.006887,0.002827,2.780319,18.766508,-244.87143,5.132868,0.096143,5.132868,0.096143,-239.99986,-240.0,146.22333,0.119832,0.10466,193.19696,191.2023,-0.005539,-0.066891,-14.177987,899.3886
-0.007828,-0.031754,0.0,0.0,0.0,0.0,0.531258,0.0,0.0,0.0,0.0,0.0,0.0,0.0,63.991833,-22.605427,146.22348,0.095493,5.13446,179.98485,-27.691193,3.223663,0.006931,0.002966,2.790291,18.759264,-244.87866,5.134214,0.095588,5.134214,0.095588,-239.99986,-240.0,146.22348,0.122164,0.103419,193.19614,190.16948,-0.005318,-0.064041,-10.469563,928.9161
-0.007828,-0.031754,0.0,0.0,0.0,0.0,0.539071,0.0,0.0,0.0,0.0,0.0,0.0,0.0,63.991833,-22.605427,146.22366,0.094592,5.136605,179.98376,-27.564747,3.236931,0.006915,0.003136,2.804927,18.751245,-244.88669,5.136297,0.094712,5.136297,0.094712,-239.99986,-240.0,146.22366,0.124912,0.10778,193.19508,189.0691,-0.004945,-0.061113,-10.641923,960.5457
-0.007828,-0.031754,0.0,0.0,0.0,0.0,0.539071,0.0,0.0,0.0,0.0,0.0,0.0,0.0,63.991833,-22.605427,146.22388,0.093366,5.139443,179.98235,-27.40385,3.255817,0.006864,0.003356,2.825458,18.742464,-244.89546,5.139097,0.09352,5.139097,0.09352,-239.99986,-240.0,146.22388,0.128214,0.122875,193.19368,187.90991,-0.004649,-0.058154,-14.30008,993.8529
-0.007828,-0.031754,0.0,0.0,0.0,0.0,0.539071,0.0,0.0,0.0,0.0,0.0,0.0,0.0,63.991833,-22.605427,146.22408,0.092229,5.14215,179.9809,-27.221773,3.27466,0.006915,0.003633,2.845917,18.735243,-244.9027,5.141785,0.092375,5.141785,0.092375,-239.99986,-240.0,146.22408,0.131342,0.127739,193.19228,186.95718,-0.003764,-0.055805,-10.253819,1020.9633
-0.007828,-0.031754,0.0,0.0,0.0,0.0,0.539071,0.0,0.0,0.0,0.0,0.0,0.0,0.0,63.991833,-22.605427,146.2243,0.090882,5.145325,179.97906,-27.003593,3.298965,0.006928,0.003961,2.872938,18.727278,-244.91066,5.144953,0.09103,5.144953,0.09103,-239.99986,-240.0,146.2243,0.135175,0.139782,193.19048,185.94862,-0.002628,-0.053412,-10.235146,1049.1674
-0.007828,-0.031754,0.0,0.0,0.0,0.0,0.546883,0.0,0.0,0.0,0.0,0.0,0.0,0.0,63.991833,-22.605427,146.22456,0.089345,5.148931,179.97682,-26.744286,3.329547,0.006891,0.004337,2.907007,18.718605,-244.91933,5.148562,0.089505,5.148562,0.089505,-239.99986,-240.0,146.22456,0.139902,0.160915,193.18825,184.89381,-0.001335,-0.051,-13.94947,1077.8927
-0.007828,-0.031754,0.0,0.0,0.0,0.0,0.558602,0.0,0.0,0.0,0.0,0.0,0.0,0.0,63.99183,-22.605427,146.22482,0.088046,5.152038,179.97462,-26.485909,3.358114,0.00695,0.004754,2.938826,18.711418,-244.92651,5.151676,0.088189,5.151676,0.088189,-239.99986,-240.0,146.22482,0.14443,0.165913,193.1861,184.03311,2.4E-5,-0.049103,-10.076233,1100.7192
-0.007828,-0.031754,0.0,0.0,0.0,0.0,0.58204,0.0,0.0,0.0,0.0,0.0,0.0,0.0,63.99183,-22.605427,146.22514,0.08648,5.155712,179.97171,-26.175858,3.396075,0.006886,0.005202,2.98138,18.702747,-244.93518,5.155361,0.086631,5.155361,0.086631,-239.99986,-240.0,146.22514,0.150474,0.194225,193.18321,183.05487,0.001552,-0.047027,-14.003305,1126.31
-0.007828,-0.031754,0.0,0.0,0.0,0.0,0.589853,0.0,0.0,0.0,0.0,0.0,0.0,0.0,63.99183,-22.605427,146.22548,0.085065,5.159081,179.96863,-25.860603,3.434313,0.006889,0.0057,3.023579,18.694952,-244.94298,5.158742,0.085211,5.158742,0.085211,-239.99986,-240.0,146.22548,0.15678,0.212004,193.18015,182.19041,0.003163,-0.045272,-13.62663,1148.9846
-0.007828,-0.031754,0.0,0.0,0.0,0.0,0.589853,0.0,0.0,0.0,0.0,0.0,0.0,0.0,63.99183,-22.605427,146.22581,0.083778,5.162137,179.96542,-25.533493,3.47158,0.006902,0.006203,3.065876,18.68783,-244.9501,5.161813,0.083908,5.161813,0.083908,-239.99986,-240.0,146.22581,0.163225,0.225724,193.17699,181.43135,0.004798,-0.043805,-10.077765,1168.9718
-0.007828,-0.031754,0.0,0.0,0.0,0.0,0.605478,0.0,0.0,0.0,0.0,0.0,0.0,0.0,63.99183,-22.605427,146.22621,0.082426,5.165424,179.96135,-25.194958,3.51629,0.006951,0.006826,3.114426,18.68002,-244.95792,5.165109,0.082528,5.165109,0.082528,-239.99986,-240.0,146.22621,0.171029,0.239645,193.17299,180.6405,0.005811,-0.04236,-9.682403,1189.9025
-0.007828,-0.031754,0.0,0.0,0.0,0.0,0.613291,0.0,0.0,0.0,0.0,0.0,0.0,0.0,63.99183,-22.605427,146.22667,0.080973,5.168918,179.95638,-24.814463,3.568348,0.006912,0.007455,3.172247,18.671469,-244.96646,5.168618,0.081099,5.168618,0.081099,-239.99986,-240.0,146.22667,0.180451,0.27537,193.16808,179.82845,0.006308,-0.040976,-13.818762,1211.7139
-0.007828,-0.031754,0.0,0.0,0.0,0.0,0.621103,0.0,0.0,0.0,0.0,0.0,0.0,0.0,63.99183,-22.605427,146.22711,0.079845,5.171815,179.95189,-24.446857,3.614268,0.006927,0.008072,3.222779,18.664469,-244.97346,5.171528,0.079967,5.171528,0.079967,-239.99986,-240.0,146.22711,0.189255,0.288755,193.1636,179.17825,0.007125,-0.039908,-20.787134,1229.6462
-0.007828,-0.031754,0.0,0.0,0.0,0.0,0.636728,0.0,0.0,0.0,0.0,0.0,0.0,0.0,63.99183,-22.605427,146.22766,0.078404,5.175181,179.94562,-24.053484,3.673428,0.006894,0.008782,3.287682,18.656023,-244.9819,5.174904,0.07853,5.174904,0.07853,-239.99986,-240.0,146.22766,0.200694,0.327801,193.15742,178.45418,0.008554,-0.038862,-10.65472,1250.2727
-0.007828,-0.031754,0.0,0.0,0.0,0.0,0.664073,0.0,0.0,0.0,0.0,0.0,0.0,0.0,63.99183,-22.605427,146.22823,0.077127,5.178229,179.9392,-23.658754,3.730629,0.006898,0.009517,3.349934,18.648445,-244.98949,5.177961,0.07728,5.177961,0.07728,-239.99986,-240.0,146.22823,0.212295,0.353933,193.15108,177.82893,0.009627,-0.038054,-9.576578,1268.9166
