aileron,elevator,rudder,flaps,slats,speedbrake,throttle0,throttle1,engine-pump0,engine-pump1,electric-pump0,electric-pump1,external-power,APU-generator,latitude-deg,longitude-deg,altitude-ft,roll-deg,pitch-deg,heading-deg,side-slip-deg,airspeed-kt,glideslope,vertical-speed-fps,airspeed-indicator_indicated-speed-kt,altimeter_indicated-altitude-ft,altimeter_pressure-alt-ft,attitude-indicator_indicated-pitch-deg,attitude-indicator_indicated-roll-deg,attitude-indicator_internal-pitch-deg,attitude-indicator_internal-roll-deg,encoder_indicated-altitude-ft,encoder_pressure-alt-ft,gps_indicated-altitude-ft,gps_indicated-ground-speed-kt,gps_indicated-vertical-speed,indicated-heading-deg,magnetic-compass_indicated-heading-deg,slip-skid-ball_indicated-slip-skid,turn-indicator_indicated-turn-rate,vertical-speed-indicator_indicated-speed-fpm,engine_rpm
0.0,0.0,0.0,0.0,0.0,0.0,0.0,0.0,0.0,0.0,0.0,0.0,0.0,0.0,63.991837,-22.605425,-9999.0,0.0,0.424,180.01839,0.0,0.0,0.0,0.0,0.0,0.0,0.0,0.0,0.0,0.0,0.0,0.0,0.0,0.0,0.0,0.0,0.0,0.0,0.0,0.0,0.0,0.0
0.0,0.0,0.0,0.0,0.0,0.0,0.0,0.0,0.0,0.0,0.0,0.0,0.0,0.0,63.991837,-22.605425,-9999.0,0.0,0.424,180.01839,0.0,0.0,0.0,0.0,0.0,281.53503,1.193444,12.0,40.0,0.0,0.0,0.0,0.0,0.0,0.0,0.0,192.89006,0.0,0.0,0.0,0.0,0.0
0.0,0.0,0.0,0.0,0.0,0.0,0.0,0.0,0.0,0.0,0.0,0.0,0.0,0.0,63.991837,-22.605425,-9999.0,0.0,0.424,180.01839,0.0,0.0,0.0,0.0,0.0,281.53503,1.193444,12.0,40.0,0.0,0.0,0.0,0.0,0.0,0.0,0.0,192.89006,0.0,0.0,0.0,0.0,0.0
0.0,0.0,0.0,0.0,0.0,0.0,0.0,0.0,0.0,0.0,0.0,0.0,0.0,0.0,63.991837,-22.605425,-9999.0,0.0,0.424,180.01839,0.0,0.0,0.0,0.0,0.0,281.53503,1.193444,12.0,40.0,0.0,0.0,0.0,0.0,0.0,0.0,0.0,192.89006,0.0,0.0,0.0,0.0,0.0
0.0,0.0,0.0,0.0,0.0,0.0,0.0,0.0,0.0,0.0,0.0,0.0,0.0,0.0,63.991837,-22.605425,-9999.0,0.0,0.424,180.01839,0.0,0.0,0.0,0.0,0.0,281.53503,1.193444,12.0,40.0,0.0,0.0,0.0,0.0,0.0,0.0,0.0,192.89006,0.0,0.0,0.0,0.0,0.0
0.0,0.0,0.0,0.0,0.0,0.0,0.0,0.0,0.0,0.0,0.0,0.0,0.0,0.0,63.991837,-22.605425,-9999.0,0.0,0.424,180.01839,0.0,0.0,0.0,0.0,0.0,281.53503,1.193444,12.0,40.0,0.0,0.0,0.0,0.0,0.0,0.0,0.0,192.89006,0.0,0.0,0.0,0.0,0.0
0.0,0.0,0.0,0.0,0.0,0.0,0.0,0.0,0.0,0.0,0.0,0.0,0.0,0.0,63.991837,-22.605425,-9999.0,0.0,0.424,180.01839,0.0,0.0,0.0,0.0,0.0,281.53503,1.193444,12.0,40.0,0.0,0.0,0.0,0.0,0.0,0.0,0.0,192.89006,0.0,0.0,0.0,0.0,0.0
0.0,0.0,0.0,0.0,0.0,0.0,0.0,0.0,0.0,0.0,0.0,0.0,0.0,0.0,63.991837,-22.605425,-9999.0,0.0,0.424,180.01839,0.0,0.0,0.0,0.0,0.0,281.53503,1.193444,12.0,40.0,0.0,0.0,0.0,0.0,0.0,0.0,0.0,192.89006,0.0,0.0,0.0,0.0,0.0
0.0,0.0,0.0,0.0,0.0,0.0,0.0,0.0,0.0,0.0,0.0,0.0,0.0,0.0,63.991837,-22.605425,-9999.0,0.0,0.424,180.01839,0.0,0.0,0.0,0.0,0.0,281.53503,1.193444,12.0,40.0,0.0,0.0,0.0,0.0,0.0,0.0,0.0,192.89006,0.0,0.0,0.0,0.0,0.0
0.0,0.0,0.0,0.0,0.0,0.0,0.0,0.0,0.0,0.0,0.0,0.0,0.0,0.0,63.991837,-22.605425,-9999.0,0.0,0.424,180.01839,0.0,0.0,0.0,0.0,0.0,281.53503,1.193444,12.0,40.0,0.0,0.0,0.0,0.0,0.0,0.0,0.0,192.89006,0.0,0.0,0.0,0.0,0.0
0.0,0.0,0.0,0.0,0.0,0.0,0.0,0.0,0.0,0.0,0.0,0.0,0.0,0.0,63.991837,-22.605425,-9999.0,0.0,0.424,180.01839,0.0,0.0,0.0,0.0,0.0,281.53503,1.193444,12.0,40.0,0.0,0.0,0.0,0.0,0.0,0.0,0.0,192.89006,0.0,0.0,0.0,0.0,0.0
0.0,0.0,0.0,0.0,0.0,0.0,0.0,0.0,0.0,0.0,0.0,0.0,0.0,0.0,63.991837,-22.605425,-9999.0,0.0,0.424,180.01839,0.0,0.0,0.0,0.0,0.0,281.53503,1.193444,12.0,40.0,0.0,0.0,0.0,0.0,0.0,0.0,0.0,192.89006,0.0,0.0,0.0,0.0,0.0
0.0,0.0,0.0,0.0,0.0,0.0,0.0,0.0,0.0,0.0,0.0,0.0,0.0,0.0,63.991837,-22.605425,-9999.0,0.0,0.424,180.01839,0.0,0.0,0.0,0.0,0.0,281.53503,1.193444,12.0,40.0,0.0,0.0,0.0,0.0,0.0,0.0,0.0,192.89006,0.0,0.0,0.0,0.0,0.0
0.0,0.0,0.0,0.0,0.0,0.0,0.0,0.0,0.0,0.0,0.0,0.0,0.0,0.0,63.991837,-22.605425,-9999.0,0.0,0.424,180.01839,0.0,0.0,0.0,0.0,0.0,281.53503,1.193444,12.0,40.0,0.0,0.0,0.0,0.0,0.0,0.0,0.0,192.89006,0.0,0.0,0.0,0.0,0.0
0.0,0.0,0.0,0.0,0.0,0.0,0.0,0.0,0.0,0.0,0.0,0.0,0.0,0.0,63.991837,-22.605425,-9999.0,0.0,0.424,180.01839,0.0,0.0,0.0,0.0,0.0,281.53503,1.193444,12.0,40.0,0.0,0.0,0.0,0.0,0.0,0.0,0.0,192.89006,0.0,0.0,0.0,0.0,0.0
0.0,0.0,0.0,0.0,0.0,0.0,0.0,0.0,0.0,0.0,0.0,0.0,0.0,0.0,63.991837,-22.605425,-9999.0,0.0,0.424,180.01839,0.0,0.0,0.0,0.0,0.0,281.53503,1.193444,12.0,40.0,0.0,0.0,0.0,0.0,0.0,0.0,0.0,192.89006,0.0,0.0,0.0,0.0,0.0
0.0,0.0,0.0,0.0,0.0,0.0,0.0,0.0,0.0,0.0,0.0,0.0,0.0,0.0,63.991837,-22.605425,-9999.0,0.0,0.424,180.01839,0.0,0.0,0.0,0.0,0.0,281.53503,1.193444,12.0,40.0,0.0,0.0,0.0,0.0,0.0,0.0,0.0,192.89006,0.0,0.0,0.0,0.0,0.0
0.0,0.0,0.0,0.0,0.0,0.0,0.0,0.0,0.0,0.0,0.0,0.0,0.0,0.0,63.991837,-22.605425,-9999.0,0.0,0.424,180.01839,0.0,0.0,0.0,0.0,0.0,281.53503,1.193444,12.0,40.0,0.0,0.0,0.0,0.0,0.0,0.0,0.0,192.89006,0.0,0.0,0.0,0.0,0.0
0.0,0.0,0.0,0.0,0.0,0.0,0.0,0.0,0.0,0.0,0.0,0.0,0.0,0.0,63.991837,-22.605425,-9999.0,0.0,0.424,180.01839,0.0,0.0,0.0,0.0,0.0,281.53503,1.193444,12.0,40.0,0.0,0.0,0.0,0.0,0.0,0.0,0.0,192.89006,0.0,0.0,0.0,0.0,0.0
0.0,0.0,0.0,0.0,0.0,0.0,0.0,0.0,0.0,0.0,0.0,0.0,0.0,0.0,63.991837,-22.605425,-9999.0,0.0,0.424,180.01839,0.0,0.0,0.0,0.0,0.0,281.53503,1.193444,12.0,40.0,0.0,0.0,0.0,0.0,0.0,0.0,0.0,192.89006,0.0,0.0,0.0,0.0,0.0
0.0,0.0,0.0,0.0,0.0,0.0,0.0,0.0,0.0,0.0,0.0,0.0,0.0,0.0,63.991837,-22.605425,-9999.0,0.0,0.424,180.01839,0.0,0.0,0.0,0.0,0.0,281.53503,1.193444,12.0,40.0,0.0,0.0,0.0,0.0,0.0,0.0,0.0,192.89006,0.0,0.0,0.0,0.0,0.0
0.0,0.0,0.0,0.0,0.0,0.0,0.0,0.0,0.0,0.0,0.0,0.0,0.0,0.0,63.991837,-22.605425,-9999.0,0.0,0.424,180.01839,0.0,0.0,0.0,0.0,0.0,281.53503,1.193444,12.0,40.0,0.0,0.0,0.0,0.0,0.0,0.0,0.0,192.89006,0.0,0.0,0.0,0.0,0.0
0.0,0.0,0.0,0.0,0.0,0.0,0.0,0.0,0.0,0.0,0.0,0.0,0.0,0.0,63.991837,-22.605425,-9999.0,0.0,0.424,180.01839,0.0,0.0,0.0,0.0,0.0,281.53503,1.193444,12.0,40.0,0.0,0.0,0.0,0.0,0.0,0.0,0.0,192.89006,0.0,0.0,0.0,0.0,0.0
0.0,0.0,0.0,0.0,0.0,0.0,0.0,0.0,0.0,0.0,0.0,0.0,0.0,0.0,63.991837,-22.605425,-9999.0,0.0,0.424,180.01839,0.0,0.0,0.0,0.0,0.0,281.53503,1.193444,12.0,40.0,0.0,0.0,0.0,0.0,0.0,0.0,0.0,192.89006,0.0,0.0,0.0,0.0,0.0
0.0,0.0,0.0,0.0,0.0,0.0,0.0,0.0,0.0,0.0,0.0,0.0,0.0,0.0,63.991837,-22.605425,-9999.0,0.0,0.424,180.01839,0.0,0.0,0.0,0.0,0.0,281.53503,1.193444,12.0,40.0,0.0,0.0,0.0,0.0,0.0,0.0,0.0,192.89006,0.0,0.0,0.0,0.0,0.0
0.0,0.0,0.0,0.0,0.0,0.0,0.0,0.0,0.0,0.0,0.0,0.0,0.0,0.0,63.991837,-22.605425,-9999.0,0.0,0.424,180.01839,0.0,0.0,0.0,0.0,0.0,281.53503,1.193444,12.0,40.0,0.0,0.0,0.0,0.0,0.0,0.0,0.0,192.89006,0.0,0.0,0.0,0.0,0.0
0.0,0.0,0.0,0.0,0.0,0.0,0.0,0.0,0.0,0.0,0.0,0.0,0.0,0.0,63.991837,-22.605425,-9999.0,0.0,0.424,180.01839,0.0,0.0,0.0,0.0,0.0,281.53503,1.193444,12.0,40.0,0.0,0.0,0.0,0.0,0.0,0.0,0.0,192.89006,0.0,0.0,0.0,0.0,0.0
0.0,0.0,0.0,0.0,0.0,0.0,0.0,0.0,0.0,0.0,0.0,0.0,0.0,0.0,63.991837,-22.605425,-9999.0,0.0,0.424,180.01839,0.0,0.0,0.0,0.0,0.0,281.53503,1.193444,12.0,40.0,0.0,0.0,0.0,0.0,0.0,0.0,0.0,192.89006,0.0,0.0,0.0,0.0,0.0
0.0,0.0,0.0,0.0,0.0,0.0,0.0,0.0,0.0,0.0,0.0,0.0,0.0,0.0,63.991837,-22.605425,-9999.0,0.0,0.424,180.01839,0.0,0.0,0.0,0.0,0.0,281.53503,1.193444,12.0,40.0,0.0,0.0,0.0,0.0,0.0,0.0,0.0,192.89006,0.0,0.0,0.0,0.0,0.0
0.0,0.0,0.0,0.0,0.0,0.0,0.0,0.0,0.0,0.0,0.0,0.0,0.0,0.0,63.991837,-22.605425,-9999.0,0.0,0.424,180.01839,0.0,0.0,0.0,0.0,0.0,281.53503,1.193444,12.0,40.0,0.0,0.0,0.0,0.0,0.0,0.0,0.0,192.89006,0.0,0.0,0.0,0.0,0.0
0.0,0.0,0.0,0.0,0.0,0.0,0.0,0.0,0.0,0.0,0.0,0.0,0.0,0.0,63.991837,-22.605425,-9999.0,0.0,0.424,180.01839,0.0,0.0,0.0,0.0,0.0,281.53503,1.193444,12.0,40.0,0.0,0.0,0.0,0.0,0.0,0.0,0.0,192.89006,0.0,0.0,0.0,0.0,0.0
0.0,0.0,0.0,0.0,0.0,0.0,0.0,0.0,0.0,0.0,0.0,0.0,0.0,0.0,63.991837,-22.605425,-9999.0,0.0,0.424,180.01839,0.0,0.0,0.0,0.0,0.0,281.53503,1.193444,12.0,40.0,0.0,0.0,0.0,0.0,0.0,0.0,0.0,192.89006,0.0,0.0,0.0,0.0,0.0
0.0,0.0,0.0,0.0,0.0,0.0,0.0,0.0,0.0,0.0,0.0,0.0,0.0,0.0,63.991837,-22.605425,-9999.0,0.0,0.424,180.01839,0.0,0.0,0.0,0.0,0.0,281.53503,1.193444,12.0,40.0,0.0,0.0,0.0,0.0,0.0,0.0,0.0,192.89006,0.0,0.0,0.0,0.0,0.0
0.0,0.0,0.0,0.0,0.0,0.0,0.0,0.0,0.0,0.0,0.0,0.0,0.0,0.0,63.991837,-22.605425,-9999.0,0.0,0.424,180.01839,0.0,0.0,0.0,0.0,0.0,281.53503,1.193444,12.0,40.0,0.0,0.0,0.0,0.0,0.0,0.0,0.0,192.89006,0.0,0.0,0.0,0.0,0.0
0.0,0.0,0.0,0.0,0.0,0.0,0.0,0.0,0.0,0.0,0.0,0.0,0.0,0.0,63.991837,-22.605425,-9999.0,0.0,0.424,180.01839,0.0,0.0,0.0,0.0,0.0,281.53503,1.193444,12.0,40.0,0.0,0.0,0.0,0.0,0.0,0.0,0.0,192.89006,0.0,0.0,0.0,0.0,0.0
0.0,0.0,0.0,0.0,0.0,0.0,0.0,0.0,0.0,0.0,0.0,0.0,0.0,0.0,63.991837,-22.605425,-9999.0,0.0,0.424,180.01839,0.0,0.0,0.0,0.0,0.0,281.53503,1.193444,12.0,40.0,0.0,0.0,0.0,0.0,0.0,0.0,0.0,192.89006,0.0,0.0,0.0,0.0,0.0
0.0,0.0,0.0,0.0,0.0,0.0,0.0,0.0,0.0,0.0,0.0,0.0,0.0,0.0,63.991837,-22.605425,-9999.0,0.0,0.424,180.01839,0.0,0.0,0.0,0.0,0.0,281.53503,1.193444,12.0,40.0,0.0,0.0,0.0,0.0,0.0,0.0,0.0,192.89006,0.0,0.0,0.0,0.0,0.0
0.0,0.0,0.0,0.0,0.0,0.0,0.0,0.0,0.0,0.0,0.0,0.0,0.0,0.0,63.991837,-22.605425,-9999.0,0.0,0.424,180.01839,0.0,0.0,0.0,0.0,0.0,281.53503,1.193444,12.0,40.0,0.0,0.0,0.0,0.0,0.0,0.0,0.0,192.89006,0.0,0.0,0.0,0.0,0.0
0.0,0.0,0.0,0.0,0.0,0.0,0.0,0.0,0.0,0.0,0.0,0.0,0.0,0.0,63.991837,-22.605425,-9999.0,0.0,0.424,180.01839,0.0,0.0,0.0,0.0,0.0,281.53503,1.193444,12.0,40.0,0.0,0.0,0.0,0.0,0.0,0.0,0.0,192.89006,0.0,0.0,0.0,0.0,0.0
0.0,0.0,0.0,0.0,0.0,0.0,0.0,0.0,0.0,0.0,0.0,0.0,0.0,0.0,63.991837,-22.605425,-9999.0,0.0,0.424,180.01839,0.0,0.0,0.0,0.0,0.0,281.53503,1.193444,12.0,40.0,0.0,0.0,0.0,0.0,0.0,0.0,0.0,192.89006,0.0,0.0,0.0,0.0,0.0
0.0,0.0,0.0,0.0,0.0,0.0,0.0,0.0,0.0,0.0,0.0,0.0,0.0,0.0,63.991837,-22.605425,-9999.0,0.0,0.424,180.01839,0.0,0.0,0.0,0.0,0.0,281.53503,1.193444,12.0,40.0,0.0,0.0,0.0,0.0,0.0,0.0,0.0,192.89006,0.0,0.0,0.0,0.0,0.0
0.0,0.0,0.0,0.0,0.0,0.0,0.0,0.0,0.0,0.0,0.0,0.0,0.0,0.0,63.991837,-22.605425,-9999.0,0.0,0.424,180.01839,0.0,0.0,0.0,0.0,0.0,281.53503,1.193444,12.0,40.0,0.0,0.0,0.0,0.0,0.0,0.0,0.0,192.89006,0.0,0.0,0.0,0.0,0.0
0.0,0.0,0.0,0.0,0.0,0.0,0.0,0.0,0.0,0.0,0.0,0.0,0.0,0.0,63.991837,-22.605425,-9999.0,0.0,0.424,180.01839,0.0,0.0,0.0,0.0,0.0,281.53503,1.193444,12.0,40.0,0.0,0.0,0.0,0.0,0.0,0.0,0.0,192.89006,0.0,0.0,0.0,0.0,0.0
0.0,0.0,0.0,0.0,0.0,0.0,0.0,0.0,0.0,0.0,0.0,0.0,0.0,0.0,63.991837,-22.605425,-9999.0,0.0,0.424,180.01839,0.0,0.0,0.0,0.0,0.0,281.53503,1.193444,12.0,40.0,0.0,0.0,0.0,0.0,0.0,0.0,0.0,192.89006,0.0,0.0,0.0,0.0,0.0
0.0,0.0,0.0,0.0,0.0,0.0,0.0,0.0,0.0,0.0,0.0,0.0,0.0,0.0,63.991837,-22.605425,-9999.0,0.0,0.424,180.01839,0.0,0.0,0.0,0.0,0.0,281.53503,1.193444,12.0,40.0,0.0,0.0,0.0,0.0,0.0,0.0,0.0,192.89006,0.0,0.0,0.0,0.0,0.0
0.0,0.0,0.0,0.0,0.0,0.0,0.0,0.0,0.0,0.0,0.0,0.0,0.0,0.0,63.991837,-22.605425,-9999.0,0.0,0.424,180.01839,0.0,0.0,0.0,0.0,0.0,281.53503,1.193444,12.0,40.0,0.0,0.0,0.0,0.0,0.0,0.0,0.0,192.89006,0.0,0.0,0.0,0.0,0.0
0.0,0.0,0.0,0.0,0.0,0.0,0.0,0.0,0.0,0.0,0.0,0.0,0.0,0.0,63.991837,-22.605425,-9999.0,0.0,0.424,180.01839,0.0,0.0,0.0,0.0,0.0,281.53503,1.193444,12.0,40.0,0.0,0.0,0.0,0.0,0.0,0.0,0.0,192.89006,0.0,0.0,0.0,0.0,0.0
0.0,0.0,0.0,0.0,0.0,0.0,0.0,0.0,0.0,0.0,0.0,0.0,0.0,0.0,63.991837,-22.605425,-9999.0,0.0,0.424,180.01839,0.0,0.0,0.0,0.0,0.0,281.53503,1.193444,12.0,40.0,0.0,0.0,0.0,0.0,0.0,0.0,0.0,192.89006,0.0,0.0,0.0,0.0,0.0
0.0,0.0,0.0,0.0,0.0,0.0,0.0,0.0,0.0,0.0,0.0,0.0,0.0,0.0,63.991837,-22.605425,-9999.0,0.0,0.424,180.01839,0.0,0.0,0.0,0.0,0.0,281.53503,1.193444,12.0,40.0,0.0,0.0,0.0,0.0,0.0,0.0,0.0,192.89006,0.0,0.0,0.0,0.0,0.0
0.0,0.0,0.0,0.0,0.0,0.0,0.0,0.0,0.0,0.0,0.0,0.0,0.0,0.0,63.991837,-22.605425,-9999.0,0.0,0.424,180.01839,0.0,0.0,0.0,0.0,0.0,281.53503,1.193444,12.0,40.0,0.0,0.0,0.0,0.0,0.0,0.0,0.0,192.89006,0.0,0.0,0.0,0.0,0.0
0.0,0.0,0.0,0.0,0.0,0.0,0.0,0.0,0.0,0.0,0.0,0.0,0.0,0.0,63.991837,-22.605425,-9999.0,0.0,0.424,180.01839,0.0,0.0,0.0,0.0,0.0,281.53503,1.193444,12.0,40.0,0.0,0.0,0.0,0.0,0.0,0.0,0.0,192.89006,0.0,0.0,0.0,0.0,0.0
0.0,0.0,0.0,0.0,0.0,0.0,0.0,0.0,0.0,0.0,0.0,0.0,0.0,0.0,63.991837,-22.605425,-9999.0,0.0,0.424,180.01839,0.0,0.0,0.0,0.0,0.0,281.53503,1.193444,12.0,40.0,0.0,0.0,0.0,0.0,0.0,0.0,0.0,192.89006,0.0,0.0,0.0,0.0,0.0
0.0,0.0,0.0,0.0,0.0,0.0,0.0,0.0,0.0,0.0,0.0,0.0,0.0,0.0,63.991837,-22.605425,-9999.0,0.0,0.424,180.01839,0.0,0.0,0.0,0.0,0.0,281.53503,1.193444,12.0,40.0,0.0,0.0,0.0,0.0,0.0,0.0,0.0,192.89006,0.0,0.0,0.0,0.0,0.0
0.0,0.0,0.0,0.0,0.0,0.0,0.0,0.0,0.0,0.0,0.0,0.0,0.0,0.0,63.991837,-22.605425,-9999.0,0.0,0.424,180.01839,0.0,0.0,0.0,0.0,0.0,281.53503,1.193444,12.0,40.0,0.0,0.0,0.0,0.0,0.0,0.0,0.0,192.89006,0.0,0.0,0.0,0.0,0.0
0.0,0.0,0.0,0.0,0.0,0.0,0.0,0.0,0.0,0.0,0.0,0.0,0.0,0.0,63.991837,-22.605425,-9999.0,0.0,0.424,180.01839,0.0,0.0,0.0,0.0,0.0,281.53503,1.193444,12.0,40.0,0.0,0.0,0.0,0.0,0.0,0.0,0.0,192.89006,0.0,0.0,0.0,0.0,0.0
0.0,0.0,0.0,0.0,0.0,0.0,0.0,0.0,0.0,0.0,0.0,0.0,0.0,0.0,63.991837,-22.605425,-9999.0,0.0,0.424,180.01839,0.0,0.0,0.0,0.0,0.0,281.53503,1.193444,12.0,40.0,0.0,0.0,0.0,0.0,0.0,0.0,0.0,192.89006,0.0,0.0,0.0,0.0,0.0
0.0,0.0,0.0,0.0,0.0,0.0,0.0,0.0,0.0,0.0,0.0,0.0,0.0,0.0,63.991837,-22.605425,-9999.0,0.0,0.424,180.01839,0.0,0.0,0.0,0.0,0.0,281.53503,1.193444,12.0,40.0,0.0,0.0,0.0,0.0,0.0,0.0,0.0,192.89006,0.0,0.0,0.0,0.0,0.0
0.0,0.0,0.0,0.0,0.0,0.0,0.0,0.0,0.0,0.0,0.0,0.0,0.0,0.0,63.991837,-22.605425,-9999.0,0.0,0.424,180.01839,0.0,0.0,0.0,0.0,0.0,281.53503,1.193444,12.0,40.0,0.0,0.0,0.0,0.0,0.0,0.0,0.0,192.89006,0.0,0.0,0.0,0.0,0.0
0.0,0.0,0.0,0.0,0.0,0.0,0.0,0.0,0.0,0.0,0.0,0.0,0.0,0.0,63.991837,-22.605425,-9999.0,0.0,0.424,180.01839,0.0,0.0,0.0,0.0,0.0,281.53503,1.193444,12.0,40.0,0.0,0.0,0.0,0.0,0.0,0.0,0.0,192.89006,0.0,0.0,0.0,0.0,0.0
0.0,0.0,0.0,0.0,0.0,0.0,0.0,0.0,0.0,0.0,0.0,0.0,0.0,0.0,63.991837,-22.605425,-9999.0,0.0,0.424,180.01839,0.0,0.0,0.0,0.0,0.0,281.53503,1.193444,12.0,40.0,0.0,0.0,0.0,0.0,0.0,0.0,0.0,192.89006,0.0,0.0,0.0,0.0,0.0
0.0,0.0,0.0,0.0,0.0,0.0,0.0,0.0,0.0,0.0,0.0,0.0,0.0,0.0,63.991837,-22.605425,-9999.0,0.0,0.424,180.01839,0.0,0.0,0.0,0.0,0.0,281.53503,1.193444,12.0,40.0,0.0,0.0,0.0,0.0,0.0,0.0,0.0,192.89006,0.0,0.0,0.0,0.0,0.0
0.0,0.0,0.0,0.0,0.0,0.0,0.0,0.0,0.0,0.0,0.0,0.0,0.0,0.0,63.991837,-22.605425,-9999.0,0.0,0.424,180.01839,0.0,0.0,0.0,0.0,0.0,281.53503,1.193444,12.0,40.0,0.0,0.0,0.0,0.0,0.0,0.0,0.0,192.89006,0.0,0.0,0.0,0.0,0.0
0.0,0.0,0.0,0.0,0.0,0.0,0.0,0.0,0.0,0.0,0.0,0.0,0.0,0.0,63.991837,-22.605425,-9999.0,0.0,0.424,180.01839,0.0,0.0,0.0,0.0,0.0,281.53503,1.193444,12.0,40.0,0.0,0.0,0.0,0.0,0.0,0.0,0.0,192.89006,0.0,0.0,0.0,0.0,0.0
0.0,0.0,0.0,0.0,0.0,0.0,0.0,0.0,0.0,0.0,0.0,0.0,0.0,0.0,63.991837,-22.605425,-9999.0,0.0,0.424,180.01839,0.0,0.0,0.0,0.0,0.0,281.53503,1.193444,12.0,40.0,0.0,0.0,0.0,0.0,0.0,0.0,0.0,192.89006,0.0,0.0,0.0,0.0,0.0
0.0,0.0,0.0,0.0,0.0,0.0,0.0,0.0,0.0,0.0,0.0,0.0,0.0,0.0,63.991837,-22.605425,-9999.0,0.0,0.424,180.01839,0.0,0.0,0.0,0.0,0.0,281.53503,1.193444,12.0,40.0,0.0,0.0,0.0,0.0,0.0,0.0,0.0,192.89006,0.0,0.0,0.0,0.0,0.0
0.0,0.0,0.0,0.0,0.0,0.0,0.0,0.0,0.0,0.0,0.0,0.0,0.0,0.0,63.991837,-22.605425,-9999.0,0.0,0.424,180.01839,0.0,0.0,0.0,0.0,0.0,281.53503,1.193444,12.0,40.0,0.0,0.0,0.0,0.0,0.0,0.0,0.0,192.89006,0.0,0.0,0.0,0.0,0.0
0.0,0.0,0.0,0.0,0.0,0.0,0.0,0.0,0.0,0.0,0.0,0.0,0.0,0.0,63.991837,-22.605425,-9999.0,0.0,0.424,180.01839,0.0,0.0,0.0,0.0,0.0,281.53503,1.193444,12.0,40.0,0.0,0.0,0.0,0.0,0.0,0.0,0.0,192.89006,0.0,0.0,0.0,0.0,0.0
0.0,0.0,0.0,0.0,0.0,0.0,0.0,0.0,0.0,0.0,0.0,0.0,0.0,0.0,63.991837,-22.605425,-9999.0,0.0,0.424,180.01839,0.0,0.0,0.0,0.0,0.0,281.53503,1.193444,12.0,40.0,0.0,0.0,0.0,0.0,0.0,0.0,0.0,192.89006,0.0,0.0,0.0,0.0,0.0
0.0,0.0,0.0,0.0,0.0,0.0,0.0,0.0,0.0,0.0,0.0,0.0,0.0,0.0,63.991837,-22.605425,-9999.0,0.0,0.424,180.01839,0.0,0.0,0.0,0.0,0.0,281.53503,1.193444,12.0,40.0,0.0,0.0,0.0,0.0,0.0,0.0,0.0,192.89006,0.0,0.0,0.0,0.0,0.0
0.0,0.0,0.0,0.0,0.0,0.0,0.0,0.0,0.0,0.0,0.0,0.0,0.0,0.0,63.991837,-22.605425,-9999.0,0.0,0.424,180.01839,0.0,0.0,0.0,0.0,0.0,281.53503,1.193444,12.0,40.0,0.0,0.0,0.0,0.0,0.0,0.0,0.0,192.89006,0.0,0.0,0.0,0.0,0.0
0.0,0.0,0.0,0.0,0.0,0.0,0.0,0.0,0.0,0.0,0.0,0.0,0.0,0.0,63.991837,-22.605425,-9999.0,0.0,0.424,180.01839,0.0,0.0,0.0,0.0,0.0,281.53503,1.193444,12.0,40.0,0.0,0.0,0.0,0.0,0.0,0.0,0.0,192.89006,0.0,0.0,0.0,0.0,0.0
0.0,0.0,0.0,0.0,0.0,0.0,0.0,0.0,0.0,0.0,0.0,0.0,0.0,0.0,63.991837,-22.605425,-9999.0,0.0,0.424,180.01839,0.0,0.0,0.0,0.0,0.0,281.53503,1.193444,12.0,40.0,0.0,0.0,0.0,0.0,0.0,0.0,0.0,192.89006,0.0,0.0,0.0,0.0,0.0
0.0,0.0,0.0,0.0,0.0,0.0,0.0,0.0,0.0,0.0,0.0,0.0,0.0,0.0,63.991837,-22.605425,-9999.0,0.0,0.424,180.01839,0.0,0.0,0.0,0.0,0.0,281.53503,1.193444,12.0,40.0,0.0,0.0,0.0,0.0,0.0,0.0,0.0,192.89006,0.0,0.0,0.0,0.0,0.0
0.0,0.0,0.0,0.0,0.0,0.0,0.0,0.0,0.0,0.0,0.0,0.0,0.0,0.0,63.991837,-22.605425,-9999.0,0.0,0.424,180.01839,0.0,0.0,0.0,0.0,0.0,281.53503,1.193444,12.0,40.0,0.0,0.0,0.0,0.0,0.0,0.0,0.0,192.89006,0.0,0.0,0.0,0.0,0.0
0.0,0.0,0.0,0.0,0.0,0.0,0.0,0.0,0.0,0.0,0.0,0.0,0.0,0.0,63.991837,-22.605425,-9999.0,0.0,0.424,180.01839,0.0,0.0,0.0,0.0,0.0,281.53503,1.193444,12.0,40.0,0.0,0.0,0.0,0.0,0.0,0.0,0.0,192.89006,0.0,0.0,0.0,0.0,0.0
0.0,0.0,0.0,0.0,0.0,0.0,0.0,0.0,0.0,0.0,0.0,0.0,0.0,0.0,63.991837,-22.605425,-9999.0,0.0,0.424,180.01839,0.0,0.0,0.0,0.0,0.0,281.53503,1.193444,12.0,40.0,0.0,0.0,0.0,0.0,0.0,0.0,0.0,192.89006,0.0,0.0,0.0,0.0,0.0
0.0,0.0,0.0,0.0,0.0,0.0,0.0,0.0,0.0,0.0,0.0,0.0,0.0,0.0,63.991837,-22.605425,-9999.0,0.0,0.424,180.01839,0.0,0.0,0.0,0.0,0.0,281.53503,1.193444,12.0,40.0,0.0,0.0,0.0,0.0,0.0,0.0,0.0,192.89006,0.0,0.0,0.0,0.0,0.0
0.0,0.0,0.0,0.0,0.0,0.0,0.0,0.0,0.0,0.0,0.0,0.0,0.0,0.0,63.991837,-22.605425,-9999.0,0.0,0.424,180.01839,0.0,0.0,0.0,0.0,0.0,281.53503,1.193444,12.0,40.0,0.0,0.0,0.0,0.0,0.0,0.0,0.0,192.89006,0.0,0.0,0.0,0.0,0.0
0.0,0.0,0.0,0.0,0.0,0.0,0.0,0.0,0.0,0.0,0.0,0.0,0.0,0.0,63.991837,-22.605425,-9999.0,0.0,0.424,180.01839,0.0,0.0,0.0,0.0,0.0,281.53503,1.193444,12.0,40.0,0.0,0.0,0.0,0.0,0.0,0.0,0.0,192.89006,0.0,0.0,0.0,0.0,0.0
0.0,0.0,0.0,0.0,0.0,0.0,0.0,0.0,0.0,0.0,0.0,0.0,0.0,0.0,63.991837,-22.605425,-9999.0,0.0,0.424,180.01839,0.0,0.0,0.0,0.0,0.0,281.53503,1.193444,12.0,40.0,0.0,0.0,0.0,0.0,0.0,0.0,0.0,192.89006,0.0,0.0,0.0,0.0,0.0
0.0,0.0,0.0,0.0,0.0,0.0,0.0,0.0,0.0,0.0,0.0,0.0,0.0,0.0,63.991837,-22.605425,-9999.0,0.0,0.424,180.01839,0.0,0.0,0.0,0.0,0.0,281.53503,1.193444,12.0,40.0,0.0,0.0,0.0,0.0,0.0,0.0,0.0,192.89006,0.0,0.0,0.0,0.0,0.0
0.0,0.0,0.0,0.0,0.0,0.0,0.0,0.0,0.0,0.0,0.0,0.0,0.0,0.0,63.991837,-22.605425,-9999.0,0.0,0.424,180.01839,0.0,0.0,0.0,0.0,0.0,281.53503,1.193444,12.0,40.0,0.0,0.0,0.0,0.0,0.0,0.0,0.0,192.89006,0.0,0.0,0.0,0.0,0.0
0.0,0.0,0.0,0.0,0.0,0.0,0.0,0.0,0.0,0.0,0.0,0.0,0.0,0.0,63.991837,-22.605425,-9999.0,0.0,0.424,180.01839,0.0,0.0,0.0,0.0,0.0,281.53503,1.193444,12.0,40.0,0.0,0.0,0.0,0.0,0.0,0.0,0.0,192.89006,0.0,0.0,0.0,0.0,0.0
0.0,0.0,0.0,0.0,0.0,0.0,0.0,0.0,0.0,0.0,0.0,0.0,0.0,0.0,63.991837,-22.605425,-9999.0,0.0,0.424,180.01839,0.0,0.0,0.0,0.0,0.0,281.53503,1.193444,12.0,40.0,0.0,0.0,0.0,0.0,0.0,0.0,0.0,192.89006,0.0,0.0,0.0,0.0,0.0
0.0,0.0,0.0,0.0,0.0,0.0,0.0,0.0,0.0,0.0,0.0,0.0,0.0,0.0,63.991837,-22.605425,-9999.0,0.0,0.424,180.01839,0.0,0.0,0.0,0.0,0.0,281.53503,1.193444,12.0,40.0,0.0,0.0,0.0,0.0,0.0,0.0,0.0,192.89006,0.0,0.0,0.0,0.0,0.0
0.0,0.0,0.0,0.0,0.0,0.0,0.0,0.0,0.0,0.0,0.0,0.0,0.0,0.0,63.991837,-22.605425,-9999.0,0.0,0.424,180.01839,0.0,0.0,0.0,0.0,0.0,281.53503,1.193444,12.0,40.0,0.0,0.0,0.0,0.0,0.0,0.0,0.0,192.89006,0.0,0.0,0.0,0.0,0.0
0.0,0.0,0.0,0.0,0.0,0.0,0.0,0.0,0.0,0.0,0.0,0.0,0.0,0.0,63.991837,-22.605425,-9999.0,0.0,0.424,180.01839,0.0,0.0,0.0,0.0,0.0,281.53503,1.193444,12.0,40.0,0.0,0.0,0.0,0.0,0.0,0.0,0.0,192.89006,0.0,0.0,0.0,0.0,0.0
0.0,0.0,0.0,0.0,0.0,0.0,0.0,0.0,0.0,0.0,0.0,0.0,0.0,0.0,63.991837,-22.605425,-9999.0,0.0,0.424,180.01839,0.0,0.0,0.0,0.0,0.0,281.53503,1.193444,12.0,40.0,0.0,0.0,0.0,0.0,0.0,0.0,0.0,192.89006,0.0,0.0,0.0,0.0,0.0
0.0,0.0,0.0,0.0,0.0,0.0,0.0,0.0,0.0,0.0,0.0,0.0,0.0,0.0,63.991837,-22.605425,-9999.0,0.0,0.424,180.01839,0.0,0.0,0.0,0.0,0.0,281.53503,1.193444,12.0,40.0,0.0,0.0,0.0,0.0,0.0,0.0,0.0,192.89006,0.0,0.0,0.0,0.0,0.0
0.0,0.0,0.0,0.0,0.0,0.0,0.0,0.0,0.0,0.0,0.0,0.0,0.0,0.0,63.991837,-22.605425,-9999.0,0.0,0.424,180.01839,0.0,0.0,0.0,0.0,0.0,281.53503,1.193444,12.0,40.0,0.0,0.0,0.0,0.0,0.0,0.0,0.0,192.89006,0.0,0.0,0.0,0.0,0.0
0.0,0.0,0.0,0.0,0.0,0.0,0.0,0.0,0.0,0.0,0.0,0.0,0.0,0.0,63.991837,-22.605425,-9999.0,0.0,0.424,180.01839,0.0,0.0,0.0,0.0,0.0,281.53503,1.193444,12.0,40.0,0.0,0.0,0.0,0.0,0.0,0.0,0.0,192.89006,0.0,0.0,0.0,0.0,0.0
0.0,0.0,0.0,0.0,0.0,0.0,0.0,0.0,0.0,0.0,0.0,0.0,0.0,0.0,63.991837,-22.605425,-9999.0,0.0,0.424,180.01839,0.0,0.0,0.0,0.0,0.0,281.53503,1.193444,12.0,40.0,0.0,0.0,0.0,0.0,0.0,0.0,0.0,192.89006,0.0,0.0,0.0,0.0,0.0
0.0,0.0,0.0,0.0,0.0,0.0,0.0,0.0,0.0,0.0,0.0,0.0,0.0,0.0,63.991837,-22.605425,-9999.0,0.0,0.424,180.01839,0.0,0.0,0.0,0.0,0.0,281.53503,1.193444,12.0,40.0,0.0,0.0,0.0,0.0,0.0,0.0,0.0,192.89006,0.0,0.0,0.0,0.0,0.0
0.0,0.0,0.0,0.0,0.0,0.0,0.0,0.0,0.0,0.0,0.0,0.0,0.0,0.0,63.991837,-22.605425,-9999.0,0.0,0.424,180.01839,0.0,0.0,0.0,0.0,0.0,281.53503,1.193444,12.0,40.0,0.0,0.0,0.0,0.0,0.0,0.0,0.0,192.89006,0.0,0.0,0.0,0.0,0.0
0.0,0.0,0.0,0.0,0.0,0.0,0.0,0.0,0.0,0.0,0.0,0.0,0.0,0.0,63.991837,-22.605425,-9999.0,0.0,0.424,180.01839,0.0,0.0,0.0,0.0,0.0,281.53503,1.193444,12.0,40.0,0.0,0.0,0.0,0.0,0.0,0.0,0.0,192.89006,0.0,0.0,0.0,0.0,0.0
0.0,0.0,0.0,0.0,0.0,0.0,0.0,0.0,0.0,0.0,0.0,0.0,0.0,0.0,63.991837,-22.605425,-9999.0,0.0,0.424,180.01839,0.0,0.0,0.0,0.0,0.0,281.53503,1.193444,12.0,40.0,0.0,0.0,0.0,0.0,0.0,0.0,0.0,192.89006,0.0,0.0,0.0,0.0,0.0
0.0,0.0,0.0,0.0,0.0,0.0,0.0,0.0,0.0,0.0,0.0,0.0,0.0,0.0,63.991837,-22.605425,-9999.0,0.0,0.424,180.01839,0.0,0.0,0.0,0.0,0.0,281.53503,1.193444,12.0,40.0,0.0,0.0,0.0,0.0,0.0,0.0,0.0,192.89006,0.0,0.0,0.0,0.0,0.0
0.0,0.0,0.0,0.0,0.0,0.0,0.0,0.0,0.0,0.0,0.0,0.0,0.0,0.0,63.991837,-22.605425,-9999.0,0.0,0.424,180.01839,0.0,0.0,0.0,0.0,0.0,281.53503,1.193444,12.0,40.0,0.0,0.0,0.0,0.0,0.0,0.0,0.0,192.89006,0.0,0.0,0.0,0.0,0.0
0.0,0.0,0.0,0.0,0.0,0.0,0.0,0.0,0.0,0.0,0.0,0.0,0.0,0.0,63.991837,-22.605425,-9999.0,0.0,0.424,180.01839,0.0,0.0,0.0,0.0,0.0,281.53503,1.193444,12.0,40.0,0.0,0.0,0.0,0.0,0.0,0.0,0.0,192.89006,0.0,0.0,0.0,0.0,0.0
0.0,0.0,0.0,0.0,0.0,0.0,0.0,0.0,0.0,0.0,0.0,0.0,0.0,0.0,63.991837,-22.605425,-9999.0,0.0,0.424,180.01839,0.0,0.0,0.0,0.0,0.0,281.53503,1.193444,12.0,40.0,0.0,0.0,0.0,0.0,0.0,0.0,0.0,192.89006,0.0,0.0,0.0,0.0,0.0
0.0,0.0,0.0,0.0,0.0,0.0,0.0,0.0,0.0,0.0,0.0,0.0,0.0,0.0,63.991837,-22.605425,-9999.0,0.0,0.424,180.01839,0.0,0.0,0.0,0.0,0.0,281.53503,1.193444,12.0,40.0,0.0,0.0,0.0,0.0,0.0,0.0,0.0,192.89006,0.0,0.0,0.0,0.0,0.0
0.0,0.0,0.0,0.0,0.0,0.0,0.0,0.0,0.0,0.0,0.0,0.0,0.0,0.0,63.991837,-22.605425,-9999.0,0.0,0.424,180.01839,0.0,0.0,0.0,0.0,0.0,281.53503,1.193444,12.0,40.0,0.0,0.0,0.0,0.0,0.0,0.0,0.0,192.89006,0.0,0.0,0.0,0.0,0.0
0.0,0.0,0.0,0.0,0.0,0.0,0.0,0.0,0.0,0.0,0.0,0.0,0.0,0.0,63.991837,-22.605425,-9999.0,0.0,0.424,180.01839,0.0,0.0,0.0,0.0,0.0,281.53503,1.193444,12.0,40.0,0.0,0.0,0.0,0.0,0.0,0.0,0.0,192.89006,0.0,0.0,0.0,0.0,0.0
0.0,0.0,0.0,0.0,0.0,0.0,0.0,0.0,0.0,0.0,0.0,0.0,0.0,0.0,63.991837,-22.605425,-9999.0,0.0,0.424,180.01839,0.0,0.0,0.0,0.0,0.0,281.53503,1.193444,12.0,40.0,0.0,0.0,0.0,0.0,0.0,0.0,0.0,192.89006,0.0,0.0,0.0,0.0,0.0
0.0,0.0,0.0,0.0,0.0,0.0,0.0,0.0,0.0,0.0,0.0,0.0,0.0,0.0,63.991837,-22.605425,-9999.0,0.0,0.424,180.01839,0.0,0.0,0.0,0.0,0.0,281.53503,1.193444,12.0,40.0,0.0,0.0,0.0,0.0,0.0,0.0,0.0,192.89006,0.0,0.0,0.0,0.0,0.0
0.0,0.0,0.0,0.0,0.0,0.0,0.0,0.0,0.0,0.0,0.0,0.0,0.0,0.0,63.991837,-22.605425,-9999.0,0.0,0.424,180.01839,0.0,0.0,0.0,0.0,0.0,281.53503,1.193444,12.0,40.0,0.0,0.0,0.0,0.0,0.0,0.0,0.0,192.89006,0.0,0.0,0.0,0.0,0.0
0.0,0.0,0.0,0.0,0.0,0.0,0.0,0.0,0.0,0.0,0.0,0.0,0.0,0.0,63.991837,-22.605425,-9999.0,0.0,0.424,180.01839,0.0,0.0,0.0,0.0,0.0,281.53503,1.193444,12.0,40.0,0.0,0.0,0.0,0.0,0.0,0.0,0.0,192.89006,0.0,0.0,0.0,0.0,0.0
0.0,0.0,0.0,0.0,0.0,0.0,0.0,0.0,0.0,0.0,0.0,0.0,0.0,0.0,63.991837,-22.605425,-9999.0,0.0,0.424,180.01839,0.0,0.0,0.0,0.0,0.0,281.53503,1.193444,12.0,40.0,0.0,0.0,0.0,0.0,0.0,0.0,0.0,192.89006,0.0,0.0,0.0,0.0,0.0
0.0,0.0,0.0,0.0,0.0,0.0,0.0,0.0,0.0,0.0,0.0,0.0,0.0,0.0,63.991837,-22.605425,-9999.0,0.0,0.424,180.01839,0.0,0.0,0.0,0.0,0.0,281.53503,1.193444,12.0,40.0,0.0,0.0,0.0,0.0,0.0,0.0,0.0,192.89006,0.0,0.0,0.0,0.0,0.0
0.0,0.0,0.0,0.0,0.0,0.0,0.0,0.0,0.0,0.0,0.0,0.0,0.0,0.0,63.991837,-22.605425,-9999.0,0.0,0.424,180.01839,0.0,0.0,0.0,0.0,0.0,281.53503,1.193444,12.0,40.0,0.0,0.0,0.0,0.0,0.0,0.0,0.0,192.89006,0.0,0.0,0.0,0.0,0.0
0.0,0.0,0.0,0.0,0.0,0.0,0.0,0.0,0.0,0.0,0.0,0.0,0.0,0.0,63.991837,-22.605425,-9999.0,0.0,0.424,180.01839,0.0,0.0,0.0,0.0,0.0,281.53503,1.193444,12.0,40.0,0.0,0.0,0.0,0.0,0.0,0.0,0.0,192.89006,0.0,0.0,0.0,0.0,0.0
0.0,0.0,0.0,0.0,0.0,0.0,0.0,0.0,0.0,0.0,0.0,0.0,0.0,0.0,63.991837,-22.605425,-9999.0,0.0,0.424,180.01839,0.0,0.0,0.0,0.0,0.0,281.53503,1.193444,12.0,40.0,0.0,0.0,0.0,0.0,0.0,0.0,0.0,192.89006,0.0,0.0,0.0,0.0,0.0
0.0,0.0,0.0,0.0,0.0,0.0,0.0,0.0,0.0,0.0,0.0,0.0,0.0,0.0,63.991837,-22.605425,-9999.0,0.0,0.424,180.01839,0.0,0.0,0.0,0.0,0.0,281.53503,1.193444,12.0,40.0,0.0,0.0,0.0,0.0,0.0,0.0,0.0,192.89006,0.0,0.0,0.0,0.0,0.0
0.0,0.0,0.0,0.0,0.0,0.0,0.0,0.0,0.0,0.0,0.0,0.0,0.0,0.0,63.991837,-22.605425,-9999.0,0.0,0.424,180.01839,0.0,0.0,0.0,0.0,0.0,281.53503,1.193444,12.0,40.0,0.0,0.0,0.0,0.0,0.0,0.0,0.0,192.89006,0.0,0.0,0.0,0.0,0.0
0.0,0.0,0.0,0.0,0.0,0.0,0.0,0.0,0.0,0.0,0.0,0.0,0.0,0.0,63.991837,-22.605425,-9999.0,0.0,0.424,180.01839,0.0,0.0,0.0,0.0,0.0,281.53503,1.193444,12.0,40.0,0.0,0.0,0.0,0.0,0.0,0.0,0.0,192.89006,0.0,0.0,0.0,0.0,0.0
0.0,0.0,0.0,0.0,0.0,0.0,0.0,0.0,0.0,0.0,0.0,0.0,0.0,0.0,63.991837,-22.605425,-9999.0,0.0,0.424,180.01839,0.0,0.0,0.0,0.0,0.0,281.53503,1.193444,12.0,40.0,0.0,0.0,0.0,0.0,0.0,0.0,0.0,192.89006,0.0,0.0,0.0,0.0,0.0
0.0,0.0,0.0,0.0,0.0,0.0,0.0,0.0,0.0,0.0,0.0,0.0,0.0,0.0,63.991837,-22.605425,-9999.0,0.0,0.424,180.01839,0.0,0.0,0.0,0.0,0.0,281.53503,1.193444,12.0,40.0,0.0,0.0,0.0,0.0,0.0,0.0,0.0,192.89006,0.0,0.0,0.0,0.0,0.0
0.0,0.0,0.0,0.0,0.0,0.0,0.0,0.0,0.0,0.0,0.0,0.0,0.0,0.0,63.991837,-22.605425,-9999.0,0.0,0.424,180.01839,0.0,0.0,0.0,0.0,0.0,281.53503,1.193444,12.0,40.0,0.0,0.0,0.0,0.0,0.0,0.0,0.0,192.89006,0.0,0.0,0.0,0.0,0.0
0.0,0.0,0.0,0.0,0.0,0.0,0.0,0.0,0.0,0.0,0.0,0.0,0.0,0.0,63.991837,-22.605425,-9999.0,0.0,0.424,180.01839,0.0,0.0,0.0,0.0,0.0,281.53503,1.193444,12.0,40.0,0.0,0.0,0.0,0.0,0.0,0.0,0.0,192.89006,0.0,0.0,0.0,0.0,0.0
0.0,0.0,0.0,0.0,0.0,0.0,0.0,0.0,0.0,0.0,0.0,0.0,0.0,0.0,63.991837,-22.605425,-9999.0,0.0,0.424,180.01839,0.0,0.0,0.0,0.0,0.0,281.53503,1.193444,12.0,40.0,0.0,0.0,0.0,0.0,0.0,0.0,0.0,192.89006,0.0,0.0,0.0,0.0,0.0
0.0,0.0,0.0,0.0,0.0,0.0,0.0,0.0,0.0,0.0,0.0,0.0,0.0,0.0,63.991837,-22.605425,-9999.0,0.0,0.424,180.01839,0.0,0.0,0.0,0.0,0.0,281.53503,1.193444,12.0,40.0,0.0,0.0,0.0,0.0,0.0,0.0,0.0,192.89006,0.0,0.0,0.0,0.0,0.0
0.0,0.0,0.0,0.0,0.0,0.0,0.0,0.0,0.0,0.0,0.0,0.0,0.0,0.0,63.991837,-22.605425,-9999.0,0.0,0.424,180.01839,0.0,0.0,0.0,0.0,0.0,281.53503,1.193444,12.0,40.0,0.0,0.0,0.0,0.0,0.0,0.0,0.0,192.89006,0.0,0.0,0.0,0.0,0.0
0.0,0.0,0.0,0.0,0.0,0.0,0.0,0.0,0.0,0.0,0.0,0.0,0.0,0.0,63.991837,-22.605425,-9999.0,0.0,0.424,180.01839,0.0,0.0,0.0,0.0,0.0,281.53503,1.193444,12.0,40.0,0.0,0.0,0.0,0.0,0.0,0.0,0.0,192.89006,0.0,0.0,0.0,0.0,0.0
0.0,0.0,0.0,0.0,0.0,0.0,0.0,0.0,0.0,0.0,0.0,0.0,0.0,0.0,63.991837,-22.605425,-9999.0,0.0,0.424,180.01839,0.0,0.0,0.0,0.0,0.0,281.53503,1.193444,12.0,40.0,0.0,0.0,0.0,0.0,0.0,0.0,0.0,192.89006,0.0,0.0,0.0,0.0,0.0
0.0,0.0,0.0,0.0,0.0,0.0,0.0,0.0,0.0,0.0,0.0,0.0,0.0,0.0,63.991837,-22.605425,-9999.0,0.0,0.424,180.01839,0.0,0.0,0.0,0.0,0.0,281.53503,1.193444,12.0,40.0,0.0,0.0,0.0,0.0,0.0,0.0,0.0,192.89006,0.0,0.0,0.0,0.0,0.0
0.0,0.0,0.0,0.0,0.0,0.0,0.0,0.0,0.0,0.0,0.0,0.0,0.0,0.0,63.991837,-22.605425,-9999.0,0.0,0.424,180.01839,0.0,0.0,0.0,0.0,0.0,281.53503,1.193444,12.0,40.0,0.0,0.0,0.0,0.0,0.0,0.0,0.0,192.89006,0.0,0.0,0.0,0.0,0.0
0.0,0.0,0.0,0.0,0.0,0.0,0.0,0.0,0.0,0.0,0.0,0.0,0.0,0.0,63.991837,-22.605425,-9999.0,0.0,0.424,180.01839,0.0,0.0,0.0,0.0,0.0,281.53503,1.193444,12.0,40.0,0.0,0.0,0.0,0.0,0.0,0.0,0.0,192.89006,0.0,0.0,0.0,0.0,0.0
0.0,0.0,0.0,0.0,0.0,0.0,0.0,0.0,0.0,0.0,0.0,0.0,0.0,0.0,63.991837,-22.605425,-9999.0,0.0,0.424,180.01839,0.0,0.0,0.0,0.0,0.0,281.53503,1.193444,12.0,40.0,0.0,0.0,0.0,0.0,0.0,0.0,0.0,192.89006,0.0,0.0,0.0,0.0,0.0
0.0,0.0,0.0,0.0,0.0,0.0,0.0,0.0,0.0,0.0,0.0,0.0,0.0,0.0,63.991837,-22.605425,-9999.0,0.0,0.424,180.01839,0.0,0.0,0.0,0.0,0.0,281.53503,1.193444,12.0,40.0,0.0,0.0,0.0,0.0,0.0,0.0,0.0,192.89006,0.0,0.0,0.0,0.0,0.0
0.0,0.0,0.0,0.0,0.0,0.0,0.0,0.0,0.0,0.0,0.0,0.0,0.0,0.0,63.991837,-22.605425,-9999.0,0.0,0.424,180.01839,0.0,0.0,0.0,0.0,0.0,281.53503,1.193444,12.0,40.0,0.0,0.0,0.0,0.0,0.0,0.0,0.0,192.89006,0.0,0.0,0.0,0.0,0.0
0.0,0.0,0.0,0.0,0.0,0.0,0.0,0.0,0.0,0.0,0.0,0.0,0.0,0.0,63.991837,-22.605425,-9999.0,0.0,0.424,180.01839,0.0,0.0,0.0,0.0,0.0,281.53503,1.193444,12.0,40.0,0.0,0.0,0.0,0.0,0.0,0.0,0.0,192.89006,0.0,0.0,0.0,0.0,0.0
0.0,0.0,0.0,0.0,0.0,0.0,0.0,0.0,0.0,0.0,0.0,0.0,0.0,0.0,63.991837,-22.605425,-9999.0,0.0,0.424,180.01839,0.0,0.0,0.0,0.0,0.0,281.53503,1.193444,12.0,40.0,0.0,0.0,0.0,0.0,0.0,0.0,0.0,192.89006,0.0,0.0,0.0,0.0,0.0
0.0,0.0,0.0,0.0,0.0,0.0,0.0,0.0,0.0,0.0,0.0,0.0,0.0,0.0,63.991837,-22.605425,-9999.0,0.0,0.424,180.01839,0.0,0.0,0.0,0.0,0.0,281.53503,1.193444,12.0,40.0,0.0,0.0,0.0,0.0,0.0,0.0,0.0,192.89006,0.0,0.0,0.0,0.0,0.0
0.0,0.0,0.0,0.0,0.0,0.0,0.0,0.0,0.0,0.0,0.0,0.0,0.0,0.0,63.991837,-22.605425,-9999.0,0.0,0.424,180.01839,0.0,0.0,0.0,0.0,0.0,281.53503,1.193444,12.0,40.0,0.0,0.0,0.0,0.0,0.0,0.0,0.0,192.89006,0.0,0.0,0.0,0.0,0.0
0.0,0.0,0.0,0.0,0.0,0.0,0.0,0.0,0.0,0.0,0.0,0.0,0.0,0.0,63.991837,-22.605425,-9999.0,0.0,0.424,180.01839,0.0,0.0,0.0,0.0,0.0,281.53503,1.193444,12.0,40.0,0.0,0.0,0.0,0.0,0.0,0.0,0.0,192.89006,0.0,0.0,0.0,0.0,0.0
0.0,0.0,0.0,0.0,0.0,0.0,0.0,0.0,0.0,0.0,0.0,0.0,0.0,0.0,63.991837,-22.605425,-9999.0,0.0,0.424,180.01839,0.0,0.0,0.0,0.0,0.0,281.53503,1.193444,12.0,40.0,0.0,0.0,0.0,0.0,0.0,0.0,0.0,192.89006,0.0,0.0,0.0,0.0,0.0
0.0,0.0,0.0,0.0,0.0,0.0,0.0,0.0,0.0,0.0,0.0,0.0,0.0,0.0,63.991837,-22.605425,-9999.0,0.0,0.424,180.01839,0.0,0.0,0.0,0.0,0.0,281.53503,1.193444,12.0,40.0,0.0,0.0,0.0,0.0,0.0,0.0,0.0,192.89006,0.0,0.0,0.0,0.0,0.0
0.0,0.0,0.0,0.0,0.0,0.0,0.0,0.0,0.0,0.0,0.0,0.0,0.0,0.0,63.991837,-22.605425,-9999.0,0.0,0.424,180.01839,0.0,0.0,0.0,0.0,0.0,281.53503,1.193444,12.0,40.0,0.0,0.0,0.0,0.0,0.0,0.0,0.0,192.89006,0.0,0.0,0.0,0.0,0.0
0.0,0.0,0.0,0.0,0.0,0.0,0.0,0.0,0.0,0.0,0.0,0.0,0.0,0.0,63.991837,-22.605425,-9999.0,0.0,0.424,180.01839,0.0,0.0,0.0,0.0,0.0,281.53503,1.193444,12.0,40.0,0.0,0.0,0.0,0.0,0.0,0.0,0.0,192.89006,0.0,0.0,0.0,0.0,0.0
0.0,0.0,0.0,0.0,0.0,0.0,0.0,0.0,0.0,0.0,0.0,0.0,0.0,0.0,63.991837,-22.605425,-9999.0,0.0,0.424,180.01839,0.0,0.0,0.0,0.0,0.0,281.53503,1.193444,12.0,40.0,0.0,0.0,0.0,0.0,0.0,0.0,0.0,192.89006,0.0,0.0,0.0,0.0,0.0
0.0,0.0,0.0,0.0,0.0,0.0,0.0,0.0,0.0,0.0,0.0,0.0,0.0,0.0,63.991837,-22.605425,-9999.0,0.0,0.424,180.01839,0.0,0.0,0.0,0.0,0.0,281.53503,1.193444,12.0,40.0,0.0,0.0,0.0,0.0,0.0,0.0,0.0,192.89006,0.0,0.0,0.0,0.0,0.0
0.0,0.0,0.0,0.0,0.0,0.0,0.0,0.0,0.0,0.0,0.0,0.0,0.0,0.0,63.991837,-22.605425,-9999.0,0.0,0.424,180.01839,0.0,0.0,0.0,0.0,0.0,281.53503,1.193444,12.0,40.0,0.0,0.0,0.0,0.0,0.0,0.0,0.0,192.89006,0.0,0.0,0.0,0.0,0.0
0.0,0.0,0.0,0.0,0.0,0.0,0.0,0.0,0.0,0.0,0.0,0.0,0.0,0.0,63.991837,-22.605425,-9999.0,0.0,0.424,180.01839,0.0,0.0,0.0,0.0,0.0,281.53503,1.193444,12.0,40.0,0.0,0.0,0.0,0.0,0.0,0.0,0.0,192.89006,0.0,0.0,0.0,0.0,0.0
0.0,0.0,0.0,0.0,0.0,0.0,0.0,0.0,0.0,0.0,0.0,0.0,0.0,0.0,63.991837,-22.605425,-9999.0,0.0,0.424,180.01839,0.0,0.0,0.0,0.0,0.0,281.53503,1.193444,12.0,40.0,0.0,0.0,0.0,0.0,0.0,0.0,0.0,192.89006,0.0,0.0,0.0,0.0,0.0
0.0,0.0,0.0,0.0,0.0,0.0,0.0,0.0,0.0,0.0,0.0,0.0,0.0,0.0,63.991837,-22.605425,-9999.0,0.0,0.424,180.01839,0.0,0.0,0.0,0.0,0.0,281.53503,1.193444,12.0,40.0,0.0,0.0,0.0,0.0,0.0,0.0,0.0,192.89006,0.0,0.0,0.0,0.0,0.0
0.0,0.0,0.0,0.0,0.0,0.0,0.0,0.0,0.0,0.0,0.0,0.0,0.0,0.0,63.991837,-22.605425,-9999.0,0.0,0.424,180.01839,0.0,0.0,0.0,0.0,0.0,281.53503,1.193444,12.0,40.0,0.0,0.0,0.0,0.0,0.0,0.0,0.0,192.89006,0.0,0.0,0.0,0.0,0.0
0.0,0.0,0.0,0.0,0.0,0.0,0.0,0.0,0.0,0.0,0.0,0.0,0.0,0.0,63.991837,-22.605425,-9999.0,0.0,0.424,180.01839,0.0,0.0,0.0,0.0,0.0,281.53503,1.193444,12.0,40.0,0.0,0.0,0.0,0.0,0.0,0.0,0.0,192.89006,0.0,0.0,0.0,0.0,0.0
0.0,0.0,0.0,0.0,0.0,0.0,0.0,0.0,0.0,0.0,0.0,0.0,0.0,0.0,63.991837,-22.605425,-9999.0,0.0,0.424,180.01839,0.0,0.0,0.0,0.0,0.0,281.53503,1.193444,12.0,40.0,0.0,0.0,0.0,0.0,0.0,0.0,0.0,192.89006,0.0,0.0,0.0,0.0,0.0
0.0,0.0,0.0,0.0,0.0,0.0,0.0,0.0,0.0,0.0,0.0,0.0,0.0,0.0,63.991837,-22.605425,-9999.0,0.0,0.424,180.01839,0.0,0.0,0.0,0.0,0.0,281.53503,1.193444,12.0,40.0,0.0,0.0,0.0,0.0,0.0,0.0,0.0,192.89006,0.0,0.0,0.0,0.0,0.0
0.0,0.0,0.0,0.0,0.0,0.0,0.0,0.0,0.0,0.0,0.0,0.0,0.0,0.0,63.991837,-22.605425,-9999.0,0.0,0.424,180.01839,0.0,0.0,0.0,0.0,0.0,281.53503,1.193444,12.0,40.0,0.0,0.0,0.0,0.0,0.0,0.0,0.0,192.89006,0.0,0.0,0.0,0.0,0.0
0.0,0.0,0.0,0.0,0.0,0.0,0.0,0.0,0.0,0.0,0.0,0.0,0.0,0.0,63.991837,-22.605425,-9999.0,0.0,0.424,180.01839,0.0,0.0,0.0,0.0,0.0,281.53503,1.193444,12.0,40.0,0.0,0.0,0.0,0.0,0.0,0.0,0.0,192.89006,0.0,0.0,0.0,0.0,0.0
0.0,0.0,0.0,0.0,0.0,0.0,0.0,0.0,0.0,0.0,0.0,0.0,0.0,0.0,63.991837,-22.605425,-9999.0,0.0,0.424,180.01839,0.0,0.0,0.0,0.0,0.0,281.53503,1.193444,12.0,40.0,0.0,0.0,0.0,0.0,0.0,0.0,0.0,192.89006,0.0,0.0,0.0,0.0,0.0
0.0,0.0,0.0,0.0,0.0,0.0,0.0,0.0,0.0,0.0,0.0,0.0,0.0,0.0,63.991837,-22.605425,-9999.0,0.0,0.424,180.01839,0.0,0.0,0.0,0.0,0.0,281.53503,1.193444,12.0,40.0,0.0,0.0,0.0,0.0,0.0,0.0,0.0,192.89006,0.0,0.0,0.0,0.0,0.0
0.0,0.0,0.0,0.0,0.0,0.0,0.0,0.0,0.0,0.0,0.0,0.0,0.0,0.0,63.991837,-22.605425,-9999.0,0.0,0.424,180.01839,0.0,0.0,0.0,0.0,0.0,281.53503,1.193444,12.0,40.0,0.0,0.0,0.0,0.0,0.0,0.0,0.0,192.89006,0.0,0.0,0.0,0.0,0.0
0.0,0.0,0.0,0.0,0.0,0.0,0.0,0.0,0.0,0.0,0.0,0.0,0.0,0.0,63.991837,-22.605425,-9999.0,0.0,0.424,180.01839,0.0,0.0,0.0,0.0,0.0,281.53503,1.193444,12.0,40.0,0.0,0.0,0.0,0.0,0.0,0.0,0.0,192.89006,0.0,0.0,0.0,0.0,0.0
0.0,0.0,0.0,0.0,0.0,0.0,0.0,0.0,0.0,0.0,0.0,0.0,0.0,0.0,63.991837,-22.605427,146.22931,0.104756,4.954411,180.01334,0.0,0.0,0.0,0.0,0.0,281.53503,1.193444,12.0,40.0,0.0,0.0,0.0,0.0,0.0,0.0,0.0,192.89006,0.0,0.0,0.0,0.0,0.0
0.0,0.0,0.0,0.0,0.0,0.0,0.0,0.0,0.0,0.0,0.0,0.0,0.0,0.0,63.991837,-22.605427,146.22926,0.098345,4.966278,180.01283,89.85027,3.011809,-6.29E-4,-2.0E-6,0.0,422.44922,142.10762,12.0,40.0,0.0,0.0,120.00014,120.0,146.22926,7.5E-5,-0.014491,192.89003,358.72015,-0.004396,-0.32179,4008.856,0.0
0.0,0.0,0.0,0.0,0.0,0.0,0.0,0.0,0.0,0.0,0.0,0.0,0.0,0.0,63.991837,-22.605427,146.22925,0.097561,4.967989,180.01277,89.83736,2.999654,-0.139871,-3.49E-4,0.0,425.01624,144.67465,12.0,40.0,0.0,0.0,130.00014,130.0,146.22925,7.4E-5,-0.051022,192.89003,358.31485,-0.004765,-0.366793,4005.078,0.0
0.0,0.0,0.0,0.0,0.0,0.0,0.0,0.0,0.0,0.0,0.0,0.0,0.0,0.0,63.991837,-22.605427,146.22952,0.094914,4.952459,180.01254,85.378296,2.793389,0.132894,7.7E-5,1.1E-5,408.9509,128.6093,12.0,40.0,0.0,0.0,130.00014,130.0,146.22952,6.4E-5,0.007615,192.89003,342.937,-0.010713,-1.022733,2943.129,0.0
0.0,0.0,0.0,0.0,0.0,0.0,0.0,0.0,0.0,0.0,0.0,0.0,0.0,0.0,63.991837,-22.605427,146.22952,0.094912,4.951595,180.01254,84.50063,2.757753,0.111241,3.8E-5,5.758907,406.79697,126.4554,12.0,40.0,0.0,0.0,130.00014,130.0,146.22952,6.3E-5,0.005099,192.89003,338.63693,-0.011425,-1.118199,2751.2676,0.0
0.0,0.0,0.0,0.0,0.0,0.0,0.0,0.0,0.0,0.0,0.0,0.0,0.0,0.0,63.991837,-22.605427,146.22954,0.094983,4.951196,180.01254,83.82662,2.731471,0.159165,3.8E-5,6.871993,404.5155,124.173935,12.0,40.0,0.0,0.0,130.00014,130.0,146.22954,6.1E-5,0.003422,192.89003,335.14816,-0.011899,-1.185727,2588.914,0.0
0.0,0.0,0.0,0.0,0.0,0.0,0.0,0.0,0.0,0.0,0.0,0.0,0.0,0.0,63.991837,-22.605427,146.22954,0.095113,4.950953,180.01256,83.19694,2.707706,0.135235,2.6E-5,7.216247,402.09756,121.75599,12.0,40.0,0.0,0.0,120.000145,120.0,146.22954,6.0E-5,0.002214,192.89003,331.7624,-0.012336,-1.244725,2428.5286,0.0
0.0,0.0,0.0,0.0,0.0,0.0,0.0,0.0,0.0,0.0,0.0,0.0,0.0,0.0,63.991837,-22.605427,146.22954,0.095299,4.950788,180.01257,82.49705,2.682155,0.087028,1.5E-5,7.357536,399.3544,119.012825,12.0,40.0,0.0,0.0,120.000145,120.0,146.22954,5.9E-5,0.001073,192.89003,327.8748,-0.012739,-1.30607,2245.6917,0.0
0.0,0.0,0.0,0.0,0.0,0.0,0.0,0.0,0.0,0.0,0.0,0.0,0.0,0.0,63.991837,-22.605427,146.22954,0.095501,4.950705,180.01259,81.783615,2.656996,-0.0469,-7.0E-6,7.42204,396.53928,116.19769,12.0,40.0,0.0,0.0,120.000145,120.0,146.22954,5.8E-5,-2.35E-4,192.89003,323.79608,-0.013121,-1.364418,2054.1218,0.0
0.0,0.0,0.0,0.0,0.0,0.0,0.0,0.0,0.0,0.0,0.0,0.0,0.0,0.0,63.991837,-22.605427,146.22954,0.095735,4.950677,180.0126,81.0563,2.632277,0.005333,1.0E-6,7.432087,393.72403,113.382454,12.0,40.0,0.0,0.0,120.000145,120.0,146.22954,5.7E-5,-2.68E-4,192.89003,319.53818,-0.013454,-1.419914,1854.0785,0.0
0.0,0.0,0.0,0.0,0.0,0.0,0.0,0.0,0.0,0.0,0.0,0.0,0.0,0.0,63.991837,-22.605427,146.22954,0.095993,4.950681,180.01263,80.31519,2.607976,-0.029092,-5.0E-6,7.461307,390.8675,110.5259,12.0,40.0,0.0,0.0,110.000145,110.0,146.22954,5.6E-5,-7.72E-4,192.89003,315.11304,-0.013768,-1.472697,1641.5315,0.0
0.0,0.0,0.0,0.0,0.0,0.0,0.0,0.0,0.0,0.0,0.0,0.0,0.0,0.0,63.991837,-22.605427,146.22954,0.096259,4.950711,180.01265,79.560165,2.584116,-0.056017,-1.1E-5,7.421276,388.0374,107.69584,12.0,40.0,0.0,0.0,110.000145,110.0,146.22954,5.4E-5,-0.001006,192.89003,310.53278,-0.014058,-1.522902,1414.9597,0.0
0.0,0.0,0.0,0.0,0.0,0.0,0.0,0.0,0.0,0.0,0.0,0.0,0.0,0.0,63.991837,-22.605427,146.22954,0.096538,4.950769,180.01266,78.72645,2.558771,-0.151883,-2.8E-5,7.424748,384.9587,104.61713,12.0,40.0,0.0,0.0,110.000145,110.0,146.22954,5.3E-5,-0.001879,192.89003,305.40985,-0.014331,-1.574525,1143.5172,0.0
0.0,0.0,0.0,0.0,0.0,0.0,0.0,0.0,0.0,0.0,0.0,0.0,0.0,0.0,63.991837,-22.605427,146.22954,0.096599,4.950788,180.01268,78.53169,2.553002,-0.142992,-2.6E-5,7.480331,384.22916,103.887566,12.0,40.0,0.0,0.0,110.000145,110.0,146.22954,5.3E-5,-0.002415,192.89003,304.2054,-0.014412,-1.586045,1074.3201,0.0
0.0,0.0,0.0,0.0,0.0,0.0,0.0,0.0,0.0,0.0,0.0,0.0,0.0,0.0,63.991837,-22.605427,146.2295,0.099272,4.95174,180.0129,71.60295,2.380424,-0.034193,-2.0E-6,6.0E-6,358.4051,78.06352,12.0,40.0,0.0,0.0,80.000145,80.0,146.2295,4.5E-5,-2.68E-4,192.89003,261.15298,-0.016058,-1.895489,-713.20935,0.0
0.0,0.0,0.0,0.0,0.0,0.0,0.0,0.0,0.0,0.0,0.0,0.0,0.0,0.0,63.991837,-22.605427,146.2295,0.099409,4.95177,180.01291,70.316055,2.354601,-0.11449,-9.0E-6,5.980252,356.11667,75.775085,12.0,40.0,0.0,0.0,80.000145,80.0,146.2295,4.4E-5,-5.03E-4,192.89003,253.3854,-0.016214,-1.936911,-759.83344,0.0
0.0,0.0,0.0,0.0,0.0,0.0,0.0,0.0,0.0,0.0,0.0,0.0,0.0,0.0,63.991837,-22.605427,146.22949,0.099511,4.9518,180.01291,69.46851,2.338525,-0.289634,-2.5E-5,6.936264,353.96155,73.61997,12.0,40.0,0.0,0.0,80.000145,80.0,146.22949,4.3E-5,-0.001677,192.89003,248.34474,-0.016325,-1.962188,-834.7185,0.0
0.0,0.0,0.0,0.0,0.0,0.0,0.0,0.0,0.0,0.0,0.0,0.0,0.0,0.0,63.991837,-22.605427,146.22949,0.099628,4.951856,180.01292,68.53075,2.321588,-0.235534,-2.4E-5,7.24086,351.29913,70.95754,12.0,40.0,0.0,0.0,70.000145,70.0,146.22949,4.2E-5,-0.001744,192.89003,242.84465,-0.016422,-1.988471,-921.33826,0.0
0.0,0.0,0.0,0.0,0.0,0.0,0.0,0.0,0.0,0.0,0.0,0.0,0.0,0.0,63.991837,-22.605427,146.22949,0.099781,4.951929,180.01292,67.499466,2.303954,-0.185046,-2.2E-5,7.373264,348.06372,67.72214,12.0,40.0,0.0,0.0,70.000145,70.0,146.22949,4.1E-5,-0.001879,192.89003,236.89714,-0.016507,-2.015496,-1018.3622,0.0
0.0,0.0,0.0,0.0,0.0,0.0,0.0,0.0,0.0,0.0,0.0,0.0,0.0,0.0,63.991837,-22.605427,146.22949,0.099945,4.951996,180.01294,66.5335,2.288353,-0.067504,-9.0E-6,7.251993,345.39664,65.055046,12.0,40.0,0.0,0.0,70.000145,70.0,146.22949,4.0E-5,-7.72E-4,192.89003,231.42867,-0.016588,-2.039174,-1074.0267,0.0
0.0,0.0,0.0,0.0,0.0,0.0,0.0,0.0,0.0,0.0,0.0,0.0,0.0,0.0,63.991837,-22.605427,146.22949,0.10013,4.952055,180.01295,65.55448,2.273401,-0.079803,-1.1E-5,7.357702,342.6189,62.27733,12.0,40.0,0.0,0.0,60.00014,60.0,146.22949,4.0E-5,-9.39E-4,192.89003,225.99158,-0.016671,-2.061695,-1127.9612,0.0
0.0,0.0,0.0,0.0,0.0,0.0,0.0,0.0,0.0,0.0,0.0,0.0,0.0,0.0,63.991837,-22.605427,146.22949,0.100316,4.952112,180.01297,64.562775,2.259119,-0.090528,-1.2E-5,7.480483,339.74606,59.404465,12.0,40.0,0.0,0.0,60.00014,60.0,146.22949,3.9E-5,-9.73E-4,192.89003,220.59602,-0.016751,-2.083114,-1179.787,0.0
0.0,0.0,0.0,0.0,0.0,0.0,0.0,0.0,0.0,0.0,0.0,0.0,0.0,0.0,63.991837,-22.605427,146.22948,0.1005,4.952181,180.01299,63.474472,2.244405,-0.207119,-2.5E-5,7.382937,336.70715,56.365585,12.0,40.0,0.0,0.0,60.00014,60.0,146.22948,3.8E-5,-0.002046,192.89003,214.80914,-0.01683,-2.10514,-1225.003,0.0
0.0,0.0,0.0,0.0,0.0,0.0,0.0,0.0,0.0,0.0,0.0,0.0,0.0,0.0,63.991837,-22.605427,146.22948,0.100641,4.952249,180.013,62.542683,2.232605,-0.19086,-2.3E-5,7.40367,334.14932,53.80773,12.0,40.0,0.0,0.0,60.00014,60.0,146.22948,3.7E-5,-0.001677,192.89003,209.96869,-0.0169,-2.122865,-1258.2416,0.0
0.0,0.0,0.0,0.0,0.0,0.0,0.0,0.0,0.0,0.0,0.0,0.0,0.0,0.0,63.991837,-22.605427,146.22948,0.100818,4.952326,180.01302,61.428993,2.219443,-0.061999,-8.0E-6,7.439439,331.09894,50.757347,12.0,40.0,0.0,0.0,50.00014,50.0,146.22948,3.6E-5,-7.04E-4,192.89003,204.3248,-0.016957,-2.14279,-1294.6295,0.0
0.0,0.0,0.0,0.0,0.0,0.0,0.0,0.0,0.0,0.0,0.0,0.0,0.0,0.0,63.991837,-22.605427,146.22948,0.100997,4.952384,180.01303,60.38939,2.208031,-0.13827,-1.7E-5,7.455281,328.24814,47.906544,12.0,40.0,0.0,0.0,50.00014,50.0,146.22948,3.6E-5,-0.002818,192.89003,199.19803,-0.017019,-2.160247,-1326.2654,0.0
0.0,0.0,0.0,0.0,0.0,0.0,0.0,0.0,0.0,0.0,0.0,0.0,0.0,0.0,63.991837,-22.605427,146.22948,0.101126,4.952436,180.01303,59.51507,2.199075,-0.183872,-2.1E-5,7.513219,325.87534,45.53374,12.0,40.0,0.0,0.0,50.00014,50.0,146.22948,3.5E-5,-0.001744,192.89003,194.99295,-0.017084,-2.174141,-1350.0819,0.0
0.0,0.0,0.0,0.0,0.0,0.0,0.0,0.0,0.0,0.0,0.0,0.0,0.0,0.0,63.991837,-22.605427,146.22948,0.101284,4.952508,180.01305,58.368122,2.188215,-0.162861,-1.8E-5,7.512835,322.79456,42.452988,12.0,40.0,0.0,0.0,50.00014,50.0,146.22948,3.4E-5,-0.001476,192.89003,189.62607,-0.017141,-2.191357,-1378.0288,0.0
0.0,0.0,0.0,0.0,0.0,0.0,0.0,0.0,0.0,0.0,0.0,0.0,0.0,0.0,63.991837,-22.605427,146.22946,0.101427,4.952574,180.01306,57.299572,2.178977,-0.148021,-1.6E-5,7.541449,320.00034,39.658756,12.0,40.0,0.0,0.0,40.00014,40.0,146.22946,3.4E-5,-0.001375,192.89003,184.78008,-0.017196,-2.20644,-1399.2422,0.0
0.0,0.0,0.0,0.0,0.0,0.0,0.0,0.0,0.0,0.0,0.0,0.0,0.0,0.0,63.991837,-22.605427,146.22946,0.10158,4.95264,180.01308,56.1321,2.169831,-0.131413,-1.4E-5,7.560844,316.9266,36.585033,12.0,40.0,0.0,0.0,40.00014,40.0,146.22946,3.3E-5,-0.001208,192.89003,179.65628,-0.017247,-2.22195,-1422.133,0.0
0.0,0.0,0.0,0.0,0.0,0.0,0.0,0.0,0.0,0.0,0.0,0.0,0.0,0.0,63.991837,-22.605427,146.22946,0.101705,4.952685,180.01309,55.227615,2.163423,0.007455,1.0E-6,7.527164,314.5689,34.227333,12.0,40.0,0.0,0.0,40.00014,40.0,146.22946,3.2E-5,-5.37E-4,192.89003,175.80968,-0.017288,-2.233321,-1437.9735,0.0
0.0,0.0,0.0,0.0,0.0,0.0,0.0,0.0,0.0,0.0,0.0,0.0,0.0,0.0,63.991837,-22.605427,146.22946,0.101866,4.952726,180.01309,54.135307,2.156434,-0.157094,-1.7E-5,7.571649,311.71487,31.37328,12.0,40.0,0.0,0.0,30.000143,30.0,146.22946,3.2E-5,-4.36E-4,192.89003,171.30858,-0.017342,-2.246353,-1456.553,0.0
0.0,0.0,0.0,0.0,0.0,0.0,0.0,0.0,0.0,0.0,0.0,0.0,0.0,0.0,63.991837,-22.605427,146.22946,0.102011,4.952776,180.0131,52.94444,2.149745,-0.144467,-1.4E-5,7.553086,308.62302,28.281427,12.0,40.0,0.0,0.0,30.000143,30.0,146.22946,3.1E-5,-0.001141,192.89003,166.58081,-0.017392,-2.259754,-1474.9374,0.0
0.0,0.0,0.0,0.0,0.0,0.0,0.0,0.0,0.0,0.0,0.0,0.0,0.0,0.0,63.991837,-22.605427,146.22946,0.102143,4.952831,180.01312,51.74667,2.144,-0.122035,-1.1E-5,7.581922,305.5722,25.230621,12.0,40.0,0.0,0.0,30.000143,30.0,146.22946,3.0E-5,-0.00104,192.89003,162.01488,-0.017435,-2.272447,-1490.0773,0.0
0.0,0.0,0.0,0.0,0.0,0.0,0.0,0.0,0.0,0.0,0.0,0.0,0.0,0.0,63.991837,-22.605427,146.22946,0.102243,4.952873,180.01312,50.821194,2.140221,-0.1039,-9.0E-6,7.623362,303.19223,22.850641,12.0,40.0,0.0,0.0,30.000143,30.0,146.22946,3.0E-5,-9.39E-4,192.89003,158.61723,-0.017474,-2.281753,-1502.2034,0.0
0.0,0.0,0.0,0.0,0.0,0.0,0.0,0.0,0.0,0.0,0.0,0.0,0.0,0.0,63.991837,-22.605427,146.22946,0.102322,4.952905,180.01314,50.07858,2.137602,-0.091919,-8.0E-6,7.609731,301.29034,20.94876,12.0,40.0,0.0,0.0,20.000143,20.0,146.22946,3.0E-5,-8.72E-4,192.89003,155.97316,-0.017499,-2.288922,-1511.2291,0.0
0.0,0.0,0.0,0.0,0.0,0.0,0.0,0.0,0.0,0.0,0.0,0.0,0.0,0.0,63.991837,-22.605427,146.22946,0.102507,4.952969,180.01315,48.40188,2.133036,0.076147,8.0E-6,7.381925,296.88455,16.542978,12.0,40.0,0.0,0.0,20.000143,20.0,146.22946,2.9E-5,-6.7E-5,192.89003,150.2725,-0.017539,-2.304205,-1534.2407,0.0
0.0,0.0,0.0,0.0,0.0,0.0,0.0,0.0,0.0,0.0,0.0,0.0,0.0,0.0,63.991837,-22.605427,146.22946,0.102611,4.95299,180.01315,47.56109,2.131437,0.060573,6.0E-6,7.462097,294.73764,14.39606,12.0,40.0,0.0,0.0,20.000143,20.0,146.22946,2.8E-5,6.7E-5,192.89003,147.55492,-0.017561,-2.311426,-1542.7369,0.0
0.0,0.0,0.0,0.0,0.0,0.0,0.0,0.0,0.0,0.0,0.0,0.0,0.0,0.0,63.991837,-22.605427,146.22946,0.102738,4.953021,180.01317,46.34464,2.129922,-0.103148,-8.0E-6,7.511188,291.7787,11.437107,12.0,40.0,0.0,0.0,10.000142,10.0,146.22946,2.8E-5,-7.72E-4,192.89003,143.79024,-0.017618,-2.321389,-1548.6027,0.0
0.0,0.0,0.0,0.0,0.0,0.0,0.0,0.0,0.0,0.0,0.0,0.0,0.0,0.0,63.991837,-22.605427,146.22946,0.102845,4.95306,180.01317,45.127186,2.12938,-0.070894,-5.0E-6,7.500319,288.4832,8.141595,12.0,40.0,0.0,0.0,10.000142,10.0,146.22946,2.7E-5,-6.04E-4,192.89003,140.2197,-0.01765,-2.330825,-1567.3087,0.0
0.0,0.0,0.0,0.0,0.0,0.0,0.0,0.0,0.0,0.0,0.0,0.0,0.0,0.0,63.991837,-22.605427,146.22946,0.102953,4.953099,180.01318,43.909634,2.129809,0.133459,1.1E-5,7.365531,285.5634,5.221817,12.0,40.0,0.0,0.0,10.000142,10.0,146.22946,2.6E-5,-1.34E-4,192.89003,136.8474,-0.017676,-2.339763,-1569.7299,0.0
0.0,0.0,0.0,0.0,0.0,0.0,0.0,0.0,0.0,0.0,0.0,0.0,0.0,0.0,63.991837,-22.605427,146.22946,0.103059,4.953119,180.0132,42.880028,2.13092,0.112059,9.0E-6,7.490917,283.06354,2.721967,12.0,40.0,0.0,0.0,10.000142,10.0,146.22946,2.6E-5,3.35E-4,192.89003,134.15144,-0.017704,-2.346956,-1572.8519,0.0
0.0,0.0,0.0,0.0,0.0,0.0,0.0,0.0,0.0,0.0,0.0,0.0,0.0,0.0,63.991837,-22.605427,146.22946,0.103156,4.953136,180.0132,41.85166,2.132705,-0.065244,-4.0E-6,7.580847,280.51654,0.174969,12.0,40.0,0.0,0.0,1.42E-4,0.0,146.22946,2.6E-5,-8.05E-4,192.89003,131.60187,-0.01774,-2.353827,-1577.6215,0.0
0.0,0.0,0.0,0.0,0.0,0.0,0.0,0.0,0.0,0.0,0.0,0.0,0.0,0.0,63.991837,-22.605427,146.22946,0.103237,4.953165,180.01321,40.732315,2.135441,-0.039859,-2.0E-6,7.700922,277.7529,-2.588697,12.0,40.0,0.0,0.0,1.42E-4,0.0,146.22946,2.5E-5,-3.69E-4,192.89003,128.98933,-0.017768,-2.36097,-1586.8834,0.0
0.0,0.0,0.0,0.0,0.0,0.0,0.0,0.0,0.0,0.0,0.0,0.0,0.0,0.0,63.991837,-22.605427,146.22946,0.103328,4.9532,180.01321,39.430584,2.139665,0.004675,0.0,7.64189,274.6102,-5.731373,12.0,40.0,0.0,0.0,1.42E-4,0.0,146.22946,2.4E-5,-1.34E-4,192.89003,126.16618,-0.017793,-2.368864,-1593.9265,0.0
0.0,0.0,0.0,0.0,0.0,0.0,0.0,0.0,0.0,0.0,0.0,0.0,0.0,0.0,63.991837,-22.605427,146.22946,0.103393,4.953224,180.01321,38.504204,2.143357,0.035565,2.0E-6,7.666739,272.37283,-7.968755,12.0,40.0,0.0,0.0,-9.999858,-10.0,146.22946,2.4E-5,-6.7E-5,192.89003,124.298935,-0.017816,-2.374227,-1598.3223,0.0
0.0,0.0,0.0,0.0,0.0,0.0,0.0,0.0,0.0,0.0,0.0,0.0,0.0,0.0,63.991837,-22.605427,146.22946,0.103477,4.953251,180.01323,37.305058,2.14899,0.076195,4.0E-6,7.612424,269.34564,-10.995946,12.0,40.0,0.0,0.0,-9.999858,-10.0,146.22946,2.4E-5,0.0,192.89003,122.05846,-0.017839,-2.380872,-1608.2931,0.0
0.0,0.0,0.0,0.0,0.0,0.0,0.0,0.0,0.0,0.0,0.0,0.0,0.0,0.0,63.991837,-22.605427,146.22946,0.103554,4.953273,180.01323,36.20409,2.155021,0.103922,6.0E-6,7.590395,266.68988,-13.651711,12.0,40.0,0.0,0.0,-9.999858,-10.0,146.22946,2.3E-5,2.01E-4,192.89003,120.17841,-0.017861,-2.386693,-1611.318,0.0
0.0,0.0,0.0,0.0,0.0,0.0,0.0,0.0,0.0,0.0,0.0,0.0,0.0,0.0,63.991837,-22.605427,146.22946,0.103634,4.953294,180.01324,35.018753,2.162448,0.137604,7.0E-6,7.616893,263.7672,-16.574385,12.0,40.0,0.0,0.0,-9.999858,-10.0,146.22946,2.3E-5,3.35E-4,192.89003,118.34565,-0.017882,-2.39268,-1616.1902,0.0
0.0,0.0,0.0,0.0,0.0,0.0,0.0,0.0,0.0,0.0,0.0,0.0,0.0,0.0,63.991837,-22.605427,146.22946,0.103706,4.953311,180.01324,33.93217,2.170119,0.178419,9.0E-6,7.592544,261.12097,-19.220606,12.0,40.0,0.0,0.0,-19.999857,-20.0,146.22946,2.2E-5,2.68E-4,192.89003,116.84188,-0.017902,-2.397925,-1618.273,0.0
0.0,0.0,0.0,0.0,0.0,0.0,0.0,0.0,0.0,0.0,0.0,0.0,0.0,0.0,63.991837,-22.605427,146.22946,0.103765,4.953323,180.01324,33.032772,2.177104,0.195591,1.0E-5,7.719049,258.87143,-21.470154,12.0,40.0,0.0,0.0,-19.999857,-20.0,146.22946,2.2E-5,5.03E-4,192.89003,115.72619,-0.01792,-2.402099,-1621.7555,0.0
0.0,0.0,0.0,0.0,0.0,0.0,0.0,0.0,0.0,0.0,0.0,0.0,0.0,0.0,63.991837,-22.605427,146.22946,0.103806,4.953331,180.01326,32.406727,2.182312,0.211648,1.1E-5,7.687273,257.10577,-23.235796,12.0,40.0,0.0,0.0,-19.999857,-20.0,146.22946,2.1E-5,5.03E-4,192.89003,115.01926,-0.017926,-2.404919,-1631.6777,0.0
0.0,0.0,0.0,0.0,0.0,0.0,0.0,0.0,0.0,0.0,0.0,0.0,0.0,0.0,63.991837,-22.605427,146.22946,0.10397,4.953351,180.01326,30.284187,2.20213,0.388863,2.5E-5,5.398415,250.52687,-29.814705,12.0,40.0,0.0,0.0,-29.999857,-30.0,146.22946,2.1E-5,0.001208,192.89003,113.05482,-0.017964,-2.413985,-1677.6698,0.0
0.0,0.0,0.0,0.0,0.0,0.0,0.0,0.0,0.0,0.0,0.0,0.0,0.0,0.0,63.991837,-22.605427,146.22946,0.104214,4.953359,180.01329,26.753654,2.242779,0.343888,1.1E-5,5.645259,241.61671,-38.72487,12.0,40.0,0.0,0.0,-39.99986,-40.0,146.22946,1.9E-5,3.35E-4,192.89003,111.310905,-0.018038,-2.427519,-1653.184,0.0
0.0,0.0,0.0,0.0,0.0,0.0,0.0,0.0,0.0,0.0,0.0,0.0,0.0,0.0,63.991837,-22.605427,146.22946,0.104259,4.953365,180.01329,25.66226,2.257406,0.417474,1.3E-5,7.088586,239.35738,-40.984215,12.0,40.0,0.0,0.0,-39.99986,-40.0,146.22946,1.9E-5,7.72E-4,192.89003,111.17022,-0.018053,-2.431348,-1628.9609,0.0
0.0,0.0,0.0,0.0,0.0,0.0,0.0,0.0,0.0,0.0,0.0,0.0,0.0,0.0,63.991837,-22.605427,146.22946,0.104305,4.953371,180.01329,24.585293,2.272844,0.466039,1.5E-5,7.522492,236.64027,-43.7013,12.0,40.0,0.0,0.0,-39.99986,-40.0,146.22946,1.8E-5,0.001107,192.89003,111.221725,-0.018066,-2.434975,-1624.3737,0.0
0.0,0.0,0.0,0.0,0.0,0.0,0.0,0.0,0.0,0.0,0.0,0.0,0.0,0.0,63.991837,-22.605427,146.22948,0.104349,4.953374,180.01329,23.604342,2.287798,0.526348,1.9E-5,7.711965,234.00215,-46.33943,12.0,40.0,0.0,0.0,-39.99986,-40.0,146.22948,1.8E-5,8.72E-4,192.89003,111.43619,-0.018079,-2.438153,-1625.6293,0.0
0.0,0.0,0.0,0.0,0.0,0.0,0.0,0.0,0.0,0.0,0.0,0.0,0.0,0.0,63.991837,-22.605427,146.22948,0.104395,4.953376,180.0133,22.63636,2.303415,0.559043,2.0E-5,7.646543,231.34268,-48.998905,12.0,40.0,0.0,0.0,-49.99986,-50.0,146.22948,1.8E-5,0.001208,192.89003,111.8072,-0.018091,-2.441175,-1627.5637,0.0
0.0,0.0,0.0,0.0,0.0,0.0,0.0,0.0,0.0,0.0,0.0,0.0,0.0,0.0,63.991837,-22.605427,146.22948,0.104441,4.953375,180.0133,21.681644,2.31968,0.594261,2.2E-5,7.728588,228.69461,-51.646973,12.0,40.0,0.0,0.0,-49.99986,-50.0,146.22948,1.7E-5,0.001308,192.89003,112.330925,-0.018103,-2.44405,-1628.9514,0.0
0.0,0.0,0.0,0.0,0.0,0.0,0.0,0.0,0.0,0.0,0.0,0.0,0.0,0.0,63.991837,-22.605427,146.22948,0.104481,4.953373,180.0133,20.896494,2.333726,0.717473,3.8E-5,7.76049,226.45454,-53.887043,12.0,40.0,0.0,0.0,-49.99986,-50.0,146.22948,1.7E-5,0.001073,192.89003,112.881096,-0.01811,-2.446338,-1631.3594,0.0
0.0,0.0,0.0,0.0,0.0,0.0,0.0,0.0,0.0,0.0,0.0,0.0,0.0,0.0,63.991837,-22.605427,146.22948,0.104556,4.953357,180.0133,19.889921,2.35263,0.593322,3.5E-5,7.822181,223.52199,-56.81959,12.0,40.0,0.0,0.0,-49.99986,-50.0,146.22948,1.7E-5,0.002348,192.89003,113.746574,-0.01812,-2.449173,-1635.1113,0.0
0.0,0.0,0.0,0.0,0.0,0.0,0.0,0.0,0.0,0.0,0.0,0.0,0.0,0.0,63.991837,-22.605427,146.22948,0.104634,4.953338,180.01332,18.899662,2.372243,0.557,3.4E-5,7.83805,220.58574,-59.75584,12.0,40.0,0.0,0.0,-59.99986,-60.0,146.22948,1.6E-5,0.002214,192.89003,114.77668,-0.018133,-2.451859,-1638.7642,0.0
0.0,0.0,0.0,0.0,0.0,0.0,0.0,0.0,0.0,0.0,0.0,0.0,0.0,0.0,63.991837,-22.605427,146.22949,0.104704,4.953328,180.01332,18.074512,2.38938,0.396659,1.9E-5,7.873525,218.08524,-62.256348,12.0,40.0,0.0,0.0,-59.99986,-60.0,146.22949,1.6E-5,0.001979,192.89003,115.77251,-0.018148,-2.45402,-1642.2778,0.0
0.0,0.0,0.0,0.0,0.0,0.0,0.0,0.0,0.0,0.0,0.0,0.0,0.0,0.0,63.991837,-22.605427,146.22949,0.104749,4.953331,180.01332,17.408255,2.403763,0.46894,2.1E-5,7.814029,216.0577,-64.28389,12.0,40.0,0.0,0.0,-59.99986,-60.0,146.22949,1.6E-5,0.001308,192.89003,116.66919,-0.018158,-2.455715,-1644.2361,0.0
0.0,0.0,0.0,0.0,0.0,0.0,0.0,0.0,0.0,0.0,0.0,0.0,0.0,0.0,63.991837,-22.605427,146.22949,0.104823,4.953351,180.01334,16.387917,2.426783,0.475159,2.6E-5,7.736291,212.79416,-67.547424,12.0,40.0,0.0,0.0,-69.999855,-70.0,146.22949,1.5E-5,0.001006,192.89003,118.205315,-0.018171,-2.45823,-1651.2013,0.0
0.0,0.0,0.0,0.0,0.0,0.0,0.0,0.0,0.0,0.0,0.0,0.0,0.0,0.0,63.991837,-22.605427,146.22949,0.104901,4.953371,180.01334,15.457822,2.448838,0.462685,2.7E-5,7.746222,209.92764,-70.41395,12.0,40.0,0.0,0.0,-69.999855,-70.0,146.22949,1.5E-5,0.001744,192.89003,119.77947,-0.018181,-2.460437,-1650.8932,0.0
0.0,0.0,0.0,0.0,0.0,0.0,0.0,0.0,0.0,0.0,0.0,0.0,0.0,0.0,63.991837,-22.605427,146.22949,0.104986,4.95339,180.01335,14.544519,2.471529,0.470035,3.0E-5,7.789372,207.01572,-73.32587,12.0,40.0,0.0,0.0,-69.999855,-70.0,146.22949,1.5E-5,0.001778,192.89003,121.48903,-0.018193,-2.462527,-1652.3883,0.0
0.0,0.0,0.0,0.0,0.0,0.0,0.0,0.0,0.0,0.0,0.0,0.0,0.0,0.0,63.991837,-22.605427,146.22949,0.10507,4.953403,180.01335,13.716371,2.493023,0.478497,3.2E-5,7.81885,204.33012,-76.01146,12.0,40.0,0.0,0.0,-69.999855,-70.0,146.22949,1.5E-5,0.001879,192.89003,123.18133,-0.018203,-2.464358,-1653.5718,0.0
0.0,0.0,0.0,0.0,0.0,0.0,0.0,0.0,0.0,0.0,0.0,0.0,0.0,0.0,63.991837,-22.605427,146.2295,0.105159,4.953414,180.01337,12.902508,2.51503,0.49445,3.4E-5,7.782096,201.636,-78.70558,12.0,40.0,0.0,0.0,-79.999855,-80.0,146.2295,1.4E-5,0.001979,192.89003,124.977615,-0.018215,-2.4661,-1654.997,0.0
0.0,0.0,0.0,0.0,0.0,0.0,0.0,0.0,0.0,0.0,0.0,0.0,0.0,0.0,63.991837,-22.605427,146.2295,0.105253,4.953421,180.01337,12.103036,2.53754,0.540949,4.7E-5,7.865275,198.93909,-81.402504,12.0,40.0,0.0,0.0,-79.999855,-80.0,146.2295,1.4E-5,0.00369,192.89003,126.872284,-0.018223,-2.467757,-1656.4722,0.0
0.0,0.0,0.0,0.0,0.0,0.0,0.0,0.0,0.0,0.0,0.0,0.0,0.0,0.0,63.991837,-22.605427,146.2295,0.10536,4.953414,180.01338,11.382547,2.558603,0.524743,4.9E-5,7.849864,196.5111,-83.83048,12.0,40.0,0.0,0.0,-79.999855,-80.0,146.2295,1.4E-5,0.002617,192.89003,128.69061,-0.018234,-2.469204,-1656.0132,0.0
0.0,0.0,0.0,0.0,0.0,0.0,0.0,0.0,0.0,0.0,0.0,0.0,0.0,0.0,63.991837,-22.605427,146.2295,0.105487,4.953399,180.01338,10.54609,2.583998,0.407799,3.1E-5,7.927909,193.57578,-86.7658,12.0,40.0,0.0,0.0,-79.999855,-80.0,146.2295,1.3E-5,0.003455,192.89003,130.93387,-0.018258,-2.470831,-1658.0541,0.0
0.0,0.0,0.0,0.0,0.0,0.0,0.0,0.0,0.0,0.0,0.0,0.0,0.0,0.0,63.991837,-22.605427,146.22952,0.105564,4.953393,180.0134,9.913881,2.603901,0.511822,3.5E-5,7.892341,191.32881,-89.01277,12.0,40.0,0.0,0.0,-89.999855,-90.0,146.22952,1.3E-5,0.002113,192.89003,132.72458,-0.018277,-2.472024,-1659.0873,0.0
0.0,0.0,0.0,0.0,0.0,0.0,0.0,0.0,0.0,0.0,0.0,0.0,0.0,0.0,63.991837,-22.605427,146.22952,0.105668,4.953392,180.0134,9.045136,2.632293,0.538886,3.9E-5,7.905117,188.1926,-92.14898,12.0,40.0,0.0,0.0,-89.999855,-90.0,146.22952,1.3E-5,0.002013,192.89003,135.31967,-0.018291,-2.473613,-1660.0631,0.0
0.0,0.0,0.0,0.0,0.0,0.0,0.0,0.0,0.0,0.0,0.0,0.0,0.0,0.0,63.991837,-22.605427,146.22952,0.105759,4.953387,180.01341,8.460949,2.628535,0.462782,4.2E-5,7.918591,185.73056,-94.61102,12.0,40.0,0.0,0.0,-89.999855,-90.0,146.22952,1.3E-5,0.002013,192.89003,137.42531,-0.018301,-2.474797,-1660.6881,0.0
0.0,0.0,0.0,0.0,0.0,0.0,0.0,0.0,0.0,0.0,0.0,0.0,0.0,0.0,63.991837,-22.605427,146.22952,0.105891,4.953371,180.01341,7.769203,2.624066,0.188299,1.5E-5,7.93763,182.8055,-97.53609,12.0,40.0,0.0,0.0,-99.999855,-100.0,146.22952,1.2E-5,0.001342,192.89003,139.98259,-0.018319,-2.476129,-1661.9993,0.0
0.0,0.0,0.0,0.0,0.0,0.0,0.0,0.0,0.0,0.0,0.0,0.0,0.0,0.0,63.991837,-22.605427,146.22952,0.105996,4.953363,180.01343,7.128682,2.620278,0.136158,1.0E-5,7.984949,180.08047,-100.26111,12.0,40.0,0.0,0.0,-99.999855,-100.0,146.22952,1.2E-5,4.7E-4,192.89003,142.40315,-0.018336,-2.477295,-1664.1089,0.0
0.0,0.0,0.0,0.0,0.0,0.0,0.0,0.0,0.0,0.0,0.0,0.0,0.0,0.0,63.991837,-22.605427,146.22952,0.106105,4.953357,180.01344,6.540229,2.617102,0.203968,1.9E-5,7.951695,177.58171,-102.75987,12.0,40.0,0.0,0.0,-99.999855,-100.0,146.22952,1.2E-5,9.39E-4,192.89003,144.66736,-0.018345,-2.478314,-1665.9207,0.0
0.0,0.0,0.0,0.0,0.0,0.0,0.0,0.0,0.0,0.0,0.0,0.0,0.0,0.0,63.991837,-22.605427,146.22954,0.106239,4.95334,180.01344,5.89644,2.61395,0.14064,1.3E-5,7.893778,174.89468,-105.44691,12.0,40.0,0.0,0.0,-99.999855,-100.0,146.22954,1.2E-5,7.04E-4,192.89003,147.1814,-0.018362,-2.479374,-1666.2537,0.0
0.0,0.0,0.0,0.0,0.0,0.0,0.0,0.0,0.0,0.0,0.0,0.0,0.0,0.0,63.991837,-22.605427,146.22954,0.106379,4.953321,180.01346,5.197136,2.610903,-0.074597,-6.0E-6,7.941096,171.9838,-108.35779,12.0,40.0,0.0,0.0,-109.999855,-110.0,146.22954,1.1E-5,8.05E-4,192.89003,149.95007,-0.018389,-2.480464,-1666.6188,0.0
0.0,0.0,0.0,0.0,0.0,0.0,0.0,0.0,0.0,0.0,0.0,0.0,0.0,0.0,63.991837,-22.605427,146.22954,0.106484,4.953314,180.01346,4.550299,2.608434,-0.065352,-5.0E-6,7.944561,169.30573,-111.03586,12.0,40.0,0.0,0.0,-109.999855,-110.0,146.22954,1.1E-5,-3.35E-4,192.89003,152.54118,-0.018409,-2.481419,-1666.5712,0.0
0.0,0.0,0.0,0.0,0.0,0.0,0.0,0.0,0.0,0.0,0.0,0.0,0.0,0.0,63.991837,-22.605427,146.22954,0.106579,4.953311,180.01347,3.956554,2.606469,0.056489,5.0E-6,7.963482,166.81638,-113.5252,12.0,40.0,0.0,0.0,-109.999855,-110.0,146.22954,1.1E-5,0.001409,192.89003,154.94112,-0.018418,-2.482253,-1667.8712,0.0
0.0,0.0,0.0,0.0,0.0,0.0,0.0,0.0,0.0,0.0,0.0,0.0,0.0,0.0,63.991837,-22.605427,146.22954,0.106718,4.953296,180.01349,3.253764,2.604513,0.085087,8.0E-6,7.941443,163.88873,-116.45285,12.0,40.0,0.0,0.0,-109.999855,-110.0,146.22954,1.1E-5,4.03E-4,192.89003,157.8017,-0.018433,-2.48319,-1668.7407,0.0
0.0,0.0,0.0,0.0,0.0,0.0,0.0,0.0,0.0,0.0,0.0,0.0,0.0,0.0,63.991837,-22.605427,146.22954,0.106827,4.95328,180.01349,2.657948,2.603155,-0.084304,-6.0E-6,7.956412,161.43211,-118.90947,12.0,40.0,0.0,0.0,-119.999855,-120.0,146.22954,1.1E-5,-3.69E-4,192.89003,160.2377,-0.018457,-2.483945,-1668.6266,0.0
0.0,0.0,0.0,0.0,0.0,0.0,0.0,0.0,0.0,0.0,0.0,0.0,0.0,0.0,63.991837,-22.605427,146.22954,0.106931,4.953269,180.0135,2.007575,2.601999,-0.060041,-4.0E-6,7.935144,158.70227,-121.63931,12.0,40.0,0.0,0.0,-119.999855,-120.0,146.22954,1.0E-5,-3.69E-4,192.89003,162.906,-0.018476,-2.48473,-1670.4108,0.0
0.0,0.0,0.0,0.0,0.0,0.0,0.0,0.0,0.0,0.0,0.0,0.0,0.0,0.0,63.991837,-22.605427,146.22954,0.107046,4.953257,180.0135,1.302456,2.601126,-0.035937,-3.0E-6,7.955187,155.77557,-124.56601,12.0,40.0,0.0,0.0,-119.999855,-120.0,146.22954,1.0E-5,-3.02E-4,192.89003,165.8032,-0.018495,-2.485536,-1671.0619,0.0
0.0,0.0,0.0,0.0,0.0,0.0,0.0,0.0,0.0,0.0,0.0,0.0,0.0,0.0,63.991837,-22.605427,146.22952,0.107154,4.953242,180.01352,0.651216,2.600671,-0.017957,-1.0E-6,7.933815,153.08792,-127.253654,12.0,40.0,0.0,0.0,-119.999855,-120.0,146.22952,1.0E-5,-1.34E-4,192.89003,168.47781,-0.018512,-2.486243,-1671.0387,0.0
0.0,0.0,0.0,0.0,0.0,0.0,0.0,0.0,0.0,0.0,0.0,0.0,0.0,0.0,63.991837,-22.605427,146.22954,0.107269,4.953219,180.01353,0.054308,2.600554,0.11974,1.2E-5,7.920424,150.62886,-129.71272,12.0,40.0,0.0,0.0,-129.99986,-130.0,146.22954,1.0E-5,6.71E-4,192.89003,170.92508,-0.018519,-2.486861,-1670.8492,0.0
0.0,0.0,0.0,0.0,0.0,0.0,0.0,0.0,0.0,0.0,0.0,0.0,0.0,0.0,63.991837,-22.605427,146.22954,0.107405,4.953185,180.01353,-0.597133,2.600741,0.100583,1.0E-5,7.963407,147.9121,-132.42949,12.0,40.0,0.0,0.0,-129.99986,-130.0,146.22954,1.0E-5,5.37E-4,192.89003,173.58514,-0.018539,-2.487503,-1671.984,0.0
0.0,0.0,0.0,0.0,0.0,0.0,0.0,0.0,0.0,0.0,0.0,0.0,0.0,0.0,63.991837,-22.605427,146.22954,0.107536,4.953158,180.01355,-1.248459,2.60126,0.087789,8.0E-6,7.961892,145.21648,-135.1251,12.0,40.0,0.0,0.0,-129.99986,-130.0,146.22954,9.0E-6,4.03E-4,192.89003,176.23018,-0.018563,-2.488114,-1672.2211,0.0
