aileron,elevator,rudder,flaps,slats,speedbrake,throttle0,throttle1,engine-pump0,engine-pump1,electric-pump0,electric-pump1,external-power,APU-generator,latitude-deg,longitude-deg,altitude-ft,roll-deg,pitch-deg,heading-deg,side-slip-deg,airspeed-kt,glideslope,vertical-speed-fps,airspeed-indicator_indicated-speed-kt,altimeter_indicated-altitude-ft,altimeter_pressure-alt-ft,attitude-indicator_indicated-pitch-deg,attitude-indicator_indicated-roll-deg,attitude-indicator_internal-pitch-deg,attitude-indicator_internal-roll-deg,encoder_indicated-altitude-ft,encoder_pressure-alt-ft,gps_indicated-altitude-ft,gps_indicated-ground-speed-kt,gps_indicated-vertical-speed,indicated-heading-deg,magnetic-compass_indicated-heading-deg,slip-skid-ball_indicated-slip-skid,turn-indicator_indicated-turn-rate,vertical-speed-indicator_indicated-speed-fpm,engine_rpm
0.0,0.0,0.0,0.0,0.0,0.0,0.0,0.0,0.0,0.0,0.0,0.0,0.0,0.0,63.985043,-22.592484,-9999.0,0.0,0.424,270.02136,0.0,0.0,0.0,0.0,0.0,0.0,0.0,0.0,0.0,0.0,0.0,0.0,0.0,0.0,0.0,0.0,0.0,0.0,0.0,0.0,0.0,0.0
0.0,0.0,0.0,0.0,0.0,0.0,0.0,0.0,0.0,0.0,0.0,0.0,0.0,0.0,63.985043,-22.592484,-9999.0,0.0,0.424,270.02136,0.0,0.0,0.0,0.0,0.0,281.53503,1.193444,12.0,40.0,0.0,0.0,0.0,0.0,0.0,0.0,0.0,282.89304,0.0,0.0,0.0,0.0,0.0
0.0,0.0,0.0,0.0,0.0,0.0,0.0,0.0,0.0,0.0,0.0,0.0,0.0,0.0,63.991837,-22.605425,-9999.0,0.0,0.424,180.01839,0.0,0.0,0.0,0.0,0.0,281.53503,1.193444,12.0,40.0,0.0,0.0,0.0,0.0,0.0,0.0,0.0,282.89304,0.0,0.0,0.0,0.0,0.0
0.0,0.0,0.0,0.0,0.0,0.0,0.0,0.0,0.0,0.0,0.0,0.0,0.0,0.0,63.991837,-22.605425,-9999.0,0.0,0.424,180.01839,0.0,0.0,0.0,0.0,0.0,281.53503,1.193444,12.0,40.0,0.0,0.0,0.0,0.0,0.0,0.0,0.0,282.89304,0.0,0.0,0.0,0.0,0.0
0.0,0.0,0.0,0.0,0.0,0.0,0.0,0.0,0.0,0.0,0.0,0.0,0.0,0.0,63.991837,-22.605425,-9999.0,0.0,0.424,180.01839,0.0,0.0,0.0,0.0,0.0,281.53503,1.193444,12.0,40.0,0.0,0.0,0.0,0.0,0.0,0.0,0.0,282.89304,0.0,0.0,0.0,0.0,0.0
0.0,0.0,0.0,0.0,0.0,0.0,0.0,0.0,0.0,0.0,0.0,0.0,0.0,0.0,63.991837,-22.605425,-9999.0,0.0,0.424,180.01839,0.0,0.0,0.0,0.0,0.0,281.53503,1.193444,12.0,40.0,0.0,0.0,0.0,0.0,0.0,0.0,0.0,282.89304,0.0,0.0,0.0,0.0,0.0
0.0,0.0,0.0,0.0,0.0,0.0,0.0,0.0,0.0,0.0,0.0,0.0,0.0,0.0,63.991837,-22.605425,-9999.0,0.0,0.424,180.01839,0.0,0.0,0.0,0.0,0.0,281.53503,1.193444,12.0,40.0,0.0,0.0,0.0,0.0,0.0,0.0,0.0,282.89304,0.0,0.0,0.0,0.0,0.0
0.0,0.0,0.0,0.0,0.0,0.0,0.0,0.0,0.0,0.0,0.0,0.0,0.0,0.0,63.991837,-22.605425,-9999.0,0.0,0.424,180.01839,0.0,0.0,0.0,0.0,0.0,281.53503,1.193444,12.0,40.0,0.0,0.0,0.0,0.0,0.0,0.0,0.0,282.89304,0.0,0.0,0.0,0.0,0.0
0.0,0.0,0.0,0.0,0.0,0.0,0.0,0.0,0.0,0.0,0.0,0.0,0.0,0.0,63.991837,-22.605425,-9999.0,0.0,0.424,180.01839,0.0,0.0,0.0,0.0,0.0,281.53503,1.193444,12.0,40.0,0.0,0.0,0.0,0.0,0.0,0.0,0.0,282.89304,0.0,0.0,0.0,0.0,0.0
0.0,0.0,0.0,0.0,0.0,0.0,0.0,0.0,0.0,0.0,0.0,0.0,0.0,0.0,63.991837,-22.605425,-9999.0,0.0,0.424,180.01839,0.0,0.0,0.0,0.0,0.0,281.53503,1.193444,12.0,40.0,0.0,0.0,0.0,0.0,0.0,0.0,0.0,282.89304,0.0,0.0,0.0,0.0,0.0
0.0,0.0,0.0,0.0,0.0,0.0,0.0,0.0,0.0,0.0,0.0,0.0,0.0,0.0,63.991837,-22.605425,-9999.0,0.0,0.424,180.01839,0.0,0.0,0.0,0.0,0.0,281.53503,1.193444,12.0,40.0,0.0,0.0,0.0,0.0,0.0,0.0,0.0,282.89304,0.0,0.0,0.0,0.0,0.0
0.0,0.0,0.0,0.0,0.0,0.0,0.0,0.0,0.0,0.0,0.0,0.0,0.0,0.0,63.991837,-22.605425,-9999.0,0.0,0.424,180.01839,0.0,0.0,0.0,0.0,0.0,281.53503,1.193444,12.0,40.0,0.0,0.0,0.0,0.0,0.0,0.0,0.0,282.89304,0.0,0.0,0.0,0.0,0.0
0.0,0.0,0.0,0.0,0.0,0.0,0.0,0.0,0.0,0.0,0.0,0.0,0.0,0.0,63.991837,-22.605425,-9999.0,0.0,0.424,180.01839,0.0,0.0,0.0,0.0,0.0,281.53503,1.193444,12.0,40.0,0.0,0.0,0.0,0.0,0.0,0.0,0.0,282.89304,0.0,0.0,0.0,0.0,0.0
0.0,0.0,0.0,0.0,0.0,0.0,0.0,0.0,0.0,0.0,0.0,0.0,0.0,0.0,63.991837,-22.605425,-9999.0,0.0,0.424,180.01839,0.0,0.0,0.0,0.0,0.0,281.53503,1.193444,12.0,40.0,0.0,0.0,0.0,0.0,0.0,0.0,0.0,282.89304,0.0,0.0,0.0,0.0,0.0
0.0,0.0,0.0,0.0,0.0,0.0,0.0,0.0,0.0,0.0,0.0,0.0,0.0,0.0,63.991837,-22.605425,-9999.0,0.0,0.424,180.01839,0.0,0.0,0.0,0.0,0.0,281.53503,1.193444,12.0,40.0,0.0,0.0,0.0,0.0,0.0,0.0,0.0,282.89304,0.0,0.0,0.0,0.0,0.0
0.0,0.0,0.0,0.0,0.0,0.0,0.0,0.0,0.0,0.0,0.0,0.0,0.0,0.0,63.991837,-22.605425,-9999.0,0.0,0.424,180.01839,0.0,0.0,0.0,0.0,0.0,281.53503,1.193444,12.0,40.0,0.0,0.0,0.0,0.0,0.0,0.0,0.0,282.89304,0.0,0.0,0.0,0.0,0.0
0.0,0.0,0.0,0.0,0.0,0.0,0.0,0.0,0.0,0.0,0.0,0.0,0.0,0.0,63.991837,-22.605425,-9999.0,0.0,0.424,180.01839,0.0,0.0,0.0,0.0,0.0,281.53503,1.193444,12.0,40.0,0.0,0.0,0.0,0.0,0.0,0.0,0.0,282.89304,0.0,0.0,0.0,0.0,0.0
0.0,0.0,0.0,0.0,0.0,0.0,0.0,0.0,0.0,0.0,0.0,0.0,0.0,0.0,63.991837,-22.605425,-9999.0,0.0,0.424,180.01839,0.0,0.0,0.0,0.0,0.0,281.53503,1.193444,12.0,40.0,0.0,0.0,0.0,0.0,0.0,0.0,0.0,282.89304,0.0,0.0,0.0,0.0,0.0
0.0,0.0,0.0,0.0,0.0,0.0,0.0,0.0,0.0,0.0,0.0,0.0,0.0,0.0,63.991837,-22.605425,-9999.0,0.0,0.424,180.01839,0.0,0.0,0.0,0.0,0.0,281.53503,1.193444,12.0,40.0,0.0,0.0,0.0,0.0,0.0,0.0,0.0,282.89304,0.0,0.0,0.0,0.0,0.0
0.0,0.0,0.0,0.0,0.0,0.0,0.0,0.0,0.0,0.0,0.0,0.0,0.0,0.0,63.991837,-22.605425,-9999.0,0.0,0.424,180.01839,0.0,0.0,0.0,0.0,0.0,281.53503,1.193444,12.0,40.0,0.0,0.0,0.0,0.0,0.0,0.0,0.0,282.89304,0.0,0.0,0.0,0.0,0.0
0.0,0.0,0.0,0.0,0.0,0.0,0.0,0.0,0.0,0.0,0.0,0.0,0.0,0.0,63.991837,-22.605425,-9999.0,0.0,0.424,180.01839,0.0,0.0,0.0,0.0,0.0,281.53503,1.193444,12.0,40.0,0.0,0.0,0.0,0.0,0.0,0.0,0.0,282.89304,0.0,0.0,0.0,0.0,0.0
0.0,0.0,0.0,0.0,0.0,0.0,0.0,0.0,0.0,0.0,0.0,0.0,0.0,0.0,63.991837,-22.605425,-9999.0,0.0,0.424,180.01839,0.0,0.0,0.0,0.0,0.0,281.53503,1.193444,12.0,40.0,0.0,0.0,0.0,0.0,0.0,0.0,0.0,282.89304,0.0,0.0,0.0,0.0,0.0
0.0,0.0,0.0,0.0,0.0,0.0,0.0,0.0,0.0,0.0,0.0,0.0,0.0,0.0,63.991837,-22.605425,-9999.0,0.0,0.424,180.01839,0.0,0.0,0.0,0.0,0.0,281.53503,1.193444,12.0,40.0,0.0,0.0,0.0,0.0,0.0,0.0,0.0,282.89304,0.0,0.0,0.0,0.0,0.0
0.0,0.0,0.0,0.0,0.0,0.0,0.0,0.0,0.0,0.0,0.0,0.0,0.0,0.0,63.991837,-22.605425,-9999.0,0.0,0.424,180.01839,0.0,0.0,0.0,0.0,0.0,281.53503,1.193444,12.0,40.0,0.0,0.0,0.0,0.0,0.0,0.0,0.0,282.89304,0.0,0.0,0.0,0.0,0.0
0.0,0.0,0.0,0.0,0.0,0.0,0.0,0.0,0.0,0.0,0.0,0.0,0.0,0.0,63.991837,-22.605425,-9999.0,0.0,0.424,180.01839,0.0,0.0,0.0,0.0,0.0,281.53503,1.193444,12.0,40.0,0.0,0.0,0.0,0.0,0.0,0.0,0.0,282.89304,0.0,0.0,0.0,0.0,0.0
0.0,0.0,0.0,0.0,0.0,0.0,0.0,0.0,0.0,0.0,0.0,0.0,0.0,0.0,63.991837,-22.605425,-9999.0,0.0,0.424,180.01839,0.0,0.0,0.0,0.0,0.0,281.53503,1.193444,12.0,40.0,0.0,0.0,0.0,0.0,0.0,0.0,0.0,282.89304,0.0,0.0,0.0,0.0,0.0
0.0,0.0,0.0,0.0,0.0,0.0,0.0,0.0,0.0,0.0,0.0,0.0,0.0,0.0,63.991837,-22.605425,-9999.0,0.0,0.424,180.01839,0.0,0.0,0.0,0.0,0.0,281.53503,1.193444,12.0,40.0,0.0,0.0,0.0,0.0,0.0,0.0,0.0,282.89304,0.0,0.0,0.0,0.0,0.0
0.0,0.0,0.0,0.0,0.0,0.0,0.0,0.0,0.0,0.0,0.0,0.0,0.0,0.0,63.991837,-22.605425,-9999.0,0.0,0.424,180.01839,0.0,0.0,0.0,0.0,0.0,281.53503,1.193444,12.0,40.0,0.0,0.0,0.0,0.0,0.0,0.0,0.0,282.89304,0.0,0.0,0.0,0.0,0.0
0.0,0.0,0.0,0.0,0.0,0.0,0.0,0.0,0.0,0.0,0.0,0.0,0.0,0.0,63.991837,-22.605425,-9999.0,0.0,0.424,180.01839,0.0,0.0,0.0,0.0,0.0,281.53503,1.193444,12.0,40.0,0.0,0.0,0.0,0.0,0.0,0.0,0.0,282.89304,0.0,0.0,0.0,0.0,0.0
0.0,0.0,0.0,0.0,0.0,0.0,0.0,0.0,0.0,0.0,0.0,0.0,0.0,0.0,63.991837,-22.605425,-9999.0,0.0,0.424,180.01839,0.0,0.0,0.0,0.0,0.0,281.53503,1.193444,12.0,40.0,0.0,0.0,0.0,0.0,0.0,0.0,0.0,282.89304,0.0,0.0,0.0,0.0,0.0
0.0,0.0,0.0,0.0,0.0,0.0,0.0,0.0,0.0,0.0,0.0,0.0,0.0,0.0,63.991837,-22.605425,-9999.0,0.0,0.424,180.01839,0.0,0.0,0.0,0.0,0.0,281.53503,1.193444,12.0,40.0,0.0,0.0,0.0,0.0,0.0,0.0,0.0,282.89304,0.0,0.0,0.0,0.0,0.0
0.0,0.0,0.0,0.0,0.0,0.0,0.0,0.0,0.0,0.0,0.0,0.0,0.0,0.0,63.991837,-22.605425,-9999.0,0.0,0.424,180.01839,0.0,0.0,0.0,0.0,0.0,281.53503,1.193444,12.0,40.0,0.0,0.0,0.0,0.0,0.0,0.0,0.0,282.89304,0.0,0.0,0.0,0.0,0.0
0.0,0.0,0.0,0.0,0.0,0.0,0.0,0.0,0.0,0.0,0.0,0.0,0.0,0.0,63.991837,-22.605425,-9999.0,0.0,0.424,180.01839,0.0,0.0,0.0,0.0,0.0,281.53503,1.193444,12.0,40.0,0.0,0.0,0.0,0.0,0.0,0.0,0.0,282.89304,0.0,0.0,0.0,0.0,0.0
0.0,0.0,0.0,0.0,0.0,0.0,0.0,0.0,0.0,0.0,0.0,0.0,0.0,0.0,63.991837,-22.605425,-9999.0,0.0,0.424,180.01839,0.0,0.0,0.0,0.0,0.0,281.53503,1.193444,12.0,40.0,0.0,0.0,0.0,0.0,0.0,0.0,0.0,282.89304,0.0,0.0,0.0,0.0,0.0
0.0,0.0,0.0,0.0,0.0,0.0,0.0,0.0,0.0,0.0,0.0,0.0,0.0,0.0,63.991837,-22.605425,-9999.0,0.0,0.424,180.01839,0.0,0.0,0.0,0.0,0.0,281.53503,1.193444,12.0,40.0,0.0,0.0,0.0,0.0,0.0,0.0,0.0,282.89304,0.0,0.0,0.0,0.0,0.0
0.0,0.0,0.0,0.0,0.0,0.0,0.0,0.0,0.0,0.0,0.0,0.0,0.0,0.0,63.991837,-22.605425,-9999.0,0.0,0.424,180.01839,0.0,0.0,0.0,0.0,0.0,281.53503,1.193444,12.0,40.0,0.0,0.0,0.0,0.0,0.0,0.0,0.0,282.89304,0.0,0.0,0.0,0.0,0.0
0.0,0.0,0.0,0.0,0.0,0.0,0.0,0.0,0.0,0.0,0.0,0.0,0.0,0.0,63.991837,-22.605425,-9999.0,0.0,0.424,180.01839,0.0,0.0,0.0,0.0,0.0,281.53503,1.193444,12.0,40.0,0.0,0.0,0.0,0.0,0.0,0.0,0.0,282.89304,0.0,0.0,0.0,0.0,0.0
0.0,0.0,0.0,0.0,0.0,0.0,0.0,0.0,0.0,0.0,0.0,0.0,0.0,0.0,63.991837,-22.605425,-9999.0,0.0,0.424,180.01839,0.0,0.0,0.0,0.0,0.0,281.53503,1.193444,12.0,40.0,0.0,0.0,0.0,0.0,0.0,0.0,0.0,282.89304,0.0,0.0,0.0,0.0,0.0
0.0,0.0,0.0,0.0,0.0,0.0,0.0,0.0,0.0,0.0,0.0,0.0,0.0,0.0,63.991837,-22.605425,-9999.0,0.0,0.424,180.01839,0.0,0.0,0.0,0.0,0.0,281.53503,1.193444,12.0,40.0,0.0,0.0,0.0,0.0,0.0,0.0,0.0,282.89304,0.0,0.0,0.0,0.0,0.0
0.0,0.0,0.0,0.0,0.0,0.0,0.0,0.0,0.0,0.0,0.0,0.0,0.0,0.0,63.991837,-22.605425,-9999.0,0.0,0.424,180.01839,0.0,0.0,0.0,0.0,0.0,281.53503,1.193444,12.0,40.0,0.0,0.0,0.0,0.0,0.0,0.0,0.0,282.89304,0.0,0.0,0.0,0.0,0.0
0.0,0.0,0.0,0.0,0.0,0.0,0.0,0.0,0.0,0.0,0.0,0.0,0.0,0.0,63.991837,-22.605425,-9999.0,0.0,0.424,180.01839,0.0,0.0,0.0,0.0,0.0,281.53503,1.193444,12.0,40.0,0.0,0.0,0.0,0.0,0.0,0.0,0.0,282.89304,0.0,0.0,0.0,0.0,0.0
0.0,0.0,0.0,0.0,0.0,0.0,0.0,0.0,0.0,0.0,0.0,0.0,0.0,0.0,63.991837,-22.605425,-9999.0,0.0,0.424,180.01839,0.0,0.0,0.0,0.0,0.0,281.53503,1.193444,12.0,40.0,0.0,0.0,0.0,0.0,0.0,0.0,0.0,282.89304,0.0,0.0,0.0,0.0,0.0
0.0,0.0,0.0,0.0,0.0,0.0,0.0,0.0,0.0,0.0,0.0,0.0,0.0,0.0,63.991837,-22.605425,-9999.0,0.0,0.424,180.01839,0.0,0.0,0.0,0.0,0.0,281.53503,1.193444,12.0,40.0,0.0,0.0,0.0,0.0,0.0,0.0,0.0,282.89304,0.0,0.0,0.0,0.0,0.0
0.0,0.0,0.0,0.0,0.0,0.0,0.0,0.0,0.0,0.0,0.0,0.0,0.0,0.0,63.991837,-22.605425,-9999.0,0.0,0.424,180.01839,0.0,0.0,0.0,0.0,0.0,281.53503,1.193444,12.0,40.0,0.0,0.0,0.0,0.0,0.0,0.0,0.0,282.89304,0.0,0.0,0.0,0.0,0.0
0.0,0.0,0.0,0.0,0.0,0.0,0.0,0.0,0.0,0.0,0.0,0.0,0.0,0.0,63.991837,-22.605425,-9999.0,0.0,0.424,180.01839,0.0,0.0,0.0,0.0,0.0,281.53503,1.193444,12.0,40.0,0.0,0.0,0.0,0.0,0.0,0.0,0.0,282.89304,0.0,0.0,0.0,0.0,0.0
0.0,0.0,0.0,0.0,0.0,0.0,0.0,0.0,0.0,0.0,0.0,0.0,0.0,0.0,63.991837,-22.605425,-9999.0,0.0,0.424,180.01839,0.0,0.0,0.0,0.0,0.0,281.53503,1.193444,12.0,40.0,0.0,0.0,0.0,0.0,0.0,0.0,0.0,282.89304,0.0,0.0,0.0,0.0,0.0
0.0,0.0,0.0,0.0,0.0,0.0,0.0,0.0,0.0,0.0,0.0,0.0,0.0,0.0,63.991837,-22.605425,-9999.0,0.0,0.424,180.01839,0.0,0.0,0.0,0.0,0.0,281.53503,1.193444,12.0,40.0,0.0,0.0,0.0,0.0,0.0,0.0,0.0,282.89304,0.0,0.0,0.0,0.0,0.0
0.0,0.0,0.0,0.0,0.0,0.0,0.0,0.0,0.0,0.0,0.0,0.0,0.0,0.0,63.991837,-22.605425,-9999.0,0.0,0.424,180.01839,0.0,0.0,0.0,0.0,0.0,281.53503,1.193444,12.0,40.0,0.0,0.0,0.0,0.0,0.0,0.0,0.0,282.89304,0.0,0.0,0.0,0.0,0.0
0.0,0.0,0.0,0.0,0.0,0.0,0.0,0.0,0.0,0.0,0.0,0.0,0.0,0.0,63.991837,-22.605425,-9999.0,0.0,0.424,180.01839,0.0,0.0,0.0,0.0,0.0,281.53503,1.193444,12.0,40.0,0.0,0.0,0.0,0.0,0.0,0.0,0.0,282.89304,0.0,0.0,0.0,0.0,0.0
0.0,0.0,0.0,0.0,0.0,0.0,0.0,0.0,0.0,0.0,0.0,0.0,0.0,0.0,63.991837,-22.605425,-9999.0,0.0,0.424,180.01839,0.0,0.0,0.0,0.0,0.0,281.53503,1.193444,12.0,40.0,0.0,0.0,0.0,0.0,0.0,0.0,0.0,282.89304,0.0,0.0,0.0,0.0,0.0
0.0,0.0,0.0,0.0,0.0,0.0,0.0,0.0,0.0,0.0,0.0,0.0,0.0,0.0,63.991837,-22.605425,-9999.0,0.0,0.424,180.01839,0.0,0.0,0.0,0.0,0.0,281.53503,1.193444,12.0,40.0,0.0,0.0,0.0,0.0,0.0,0.0,0.0,282.89304,0.0,0.0,0.0,0.0,0.0
0.0,0.0,0.0,0.0,0.0,0.0,0.0,0.0,0.0,0.0,0.0,0.0,0.0,0.0,63.991837,-22.605425,-9999.0,0.0,0.424,180.01839,0.0,0.0,0.0,0.0,0.0,281.53503,1.193444,12.0,40.0,0.0,0.0,0.0,0.0,0.0,0.0,0.0,282.89304,0.0,0.0,0.0,0.0,0.0
0.0,0.0,0.0,0.0,0.0,0.0,0.0,0.0,0.0,0.0,0.0,0.0,0.0,0.0,63.991837,-22.605425,-9999.0,0.0,0.424,180.01839,0.0,0.0,0.0,0.0,0.0,281.53503,1.193444,12.0,40.0,0.0,0.0,0.0,0.0,0.0,0.0,0.0,282.89304,0.0,0.0,0.0,0.0,0.0
0.0,0.0,0.0,0.0,0.0,0.0,0.0,0.0,0.0,0.0,0.0,0.0,0.0,0.0,63.991837,-22.605425,-9999.0,0.0,0.424,180.01839,0.0,0.0,0.0,0.0,0.0,281.53503,1.193444,12.0,40.0,0.0,0.0,0.0,0.0,0.0,0.0,0.0,282.89304,0.0,0.0,0.0,0.0,0.0
0.0,0.0,0.0,0.0,0.0,0.0,0.0,0.0,0.0,0.0,0.0,0.0,0.0,0.0,63.991837,-22.605425,-9999.0,0.0,0.424,180.01839,0.0,0.0,0.0,0.0,0.0,281.53503,1.193444,12.0,40.0,0.0,0.0,0.0,0.0,0.0,0.0,0.0,282.89304,0.0,0.0,0.0,0.0,0.0
0.0,0.0,0.0,0.0,0.0,0.0,0.0,0.0,0.0,0.0,0.0,0.0,0.0,0.0,63.991837,-22.605425,-9999.0,0.0,0.424,180.01839,0.0,0.0,0.0,0.0,0.0,281.53503,1.193444,12.0,40.0,0.0,0.0,0.0,0.0,0.0,0.0,0.0,282.89304,0.0,0.0,0.0,0.0,0.0
0.0,0.0,0.0,0.0,0.0,0.0,0.0,0.0,0.0,0.0,0.0,0.0,0.0,0.0,63.991837,-22.605425,-9999.0,0.0,0.424,180.01839,0.0,0.0,0.0,0.0,0.0,281.53503,1.193444,12.0,40.0,0.0,0.0,0.0,0.0,0.0,0.0,0.0,282.89304,0.0,0.0,0.0,0.0,0.0
0.0,0.0,0.0,0.0,0.0,0.0,0.0,0.0,0.0,0.0,0.0,0.0,0.0,0.0,63.991837,-22.605425,-9999.0,0.0,0.424,180.01839,0.0,0.0,0.0,0.0,0.0,281.53503,1.193444,12.0,40.0,0.0,0.0,0.0,0.0,0.0,0.0,0.0,282.89304,0.0,0.0,0.0,0.0,0.0
0.0,0.0,0.0,0.0,0.0,0.0,0.0,0.0,0.0,0.0,0.0,0.0,0.0,0.0,63.991837,-22.605425,-9999.0,0.0,0.424,180.01839,0.0,0.0,0.0,0.0,0.0,281.53503,1.193444,12.0,40.0,0.0,0.0,0.0,0.0,0.0,0.0,0.0,282.89304,0.0,0.0,0.0,0.0,0.0
0.0,0.0,0.0,0.0,0.0,0.0,0.0,0.0,0.0,0.0,0.0,0.0,0.0,0.0,63.991837,-22.605425,-9999.0,0.0,0.424,180.01839,0.0,0.0,0.0,0.0,0.0,281.53503,1.193444,12.0,40.0,0.0,0.0,0.0,0.0,0.0,0.0,0.0,282.89304,0.0,0.0,0.0,0.0,0.0
0.0,0.0,0.0,0.0,0.0,0.0,0.0,0.0,0.0,0.0,0.0,0.0,0.0,0.0,63.991837,-22.605425,-9999.0,0.0,0.424,180.01839,0.0,0.0,0.0,0.0,0.0,281.53503,1.193444,12.0,40.0,0.0,0.0,0.0,0.0,0.0,0.0,0.0,282.89304,0.0,0.0,0.0,0.0,0.0
0.0,0.0,0.0,0.0,0.0,0.0,0.0,0.0,0.0,0.0,0.0,0.0,0.0,0.0,63.991837,-22.605425,-9999.0,0.0,0.424,180.01839,0.0,0.0,0.0,0.0,0.0,281.53503,1.193444,12.0,40.0,0.0,0.0,0.0,0.0,0.0,0.0,0.0,282.89304,0.0,0.0,0.0,0.0,0.0
0.0,0.0,0.0,0.0,0.0,0.0,0.0,0.0,0.0,0.0,0.0,0.0,0.0,0.0,63.991837,-22.605425,-9999.0,0.0,0.424,180.01839,0.0,0.0,0.0,0.0,0.0,281.53503,1.193444,12.0,40.0,0.0,0.0,0.0,0.0,0.0,0.0,0.0,282.89304,0.0,0.0,0.0,0.0,0.0
0.0,0.0,0.0,0.0,0.0,0.0,0.0,0.0,0.0,0.0,0.0,0.0,0.0,0.0,63.991837,-22.605427,146.22931,0.104764,4.954339,180.01079,0.0,0.0,0.0,0.0,0.0,281.53503,1.193444,12.0,40.0,0.0,0.0,0.0,0.0,0.0,0.0,0.0,282.89304,0.0,0.0,0.0,0.0,0.0
0.0,0.0,0.0,0.0,0.0,0.0,0.0,0.0,0.0,0.0,0.0,0.0,0.0,0.0,63.991837,-22.605427,146.22922,0.094342,4.976174,180.00998,89.867355,3.01234,-0.004687,-7.0E-6,0.0,430.5968,150.25523,12.0,40.0,0.0,0.0,150.00014,150.0,146.22922,7.4E-5,-0.006642,282.893,354.31454,-0.007336,-0.641371,3799.5378,0.0
0.0,0.0,0.0,0.0,0.0,0.0,0.0,0.0,0.0,0.0,0.0,0.0,0.0,0.0,63.991837,-22.605427,146.22934,0.093507,4.966435,180.0099,88.45436,2.932638,0.05237,1.74E-4,3.073355,423.53702,143.19545,12.0,40.0,0.0,0.0,140.00014,140.0,146.22934,7.0E-5,0.029251,282.893,348.14883,-0.0096,-0.880606,3380.1646,0.0
0.0,0.0,0.0,0.0,0.0,0.0,0.0,0.0,0.0,0.0,0.0,0.0,0.0,0.0,63.991837,-22.605427,146.22952,0.094425,4.9524,180.00996,84.99866,2.777784,0.137294,7.9E-5,4.838299,408.48416,128.14258,12.0,40.0,0.0,0.0,130.00014,130.0,146.22952,6.2E-5,0.006843,282.893,329.8421,-0.012405,-1.275782,2466.8345,0.0
0.0,0.0,0.0,0.0,0.0,0.0,0.0,0.0,0.0,0.0,0.0,0.0,0.0,0.0,63.991837,-22.605427,146.22952,0.094568,4.95173,180.00996,84.33518,2.751191,0.111966,4.4E-5,6.497036,406.52637,126.18478,12.0,40.0,0.0,0.0,130.00014,130.0,146.22952,6.1E-5,0.00483,282.893,325.85727,-0.012792,-1.33561,2306.5974,0.0
0.0,0.0,0.0,0.0,0.0,0.0,0.0,0.0,0.0,0.0,0.0,0.0,0.0,0.0,63.991837,-22.605427,146.22954,0.094747,4.951288,180.00998,83.658066,2.724991,0.142583,4.1E-5,7.118391,404.02362,123.68204,12.0,40.0,0.0,0.0,130.00014,130.0,146.22954,6.0E-5,0.003891,282.893,321.6873,-0.013137,-1.392513,2126.5798,0.0
0.0,0.0,0.0,0.0,0.0,0.0,0.0,0.0,0.0,0.0,0.0,0.0,0.0,0.0,63.991837,-22.605427,146.22954,0.094972,4.951001,180.01001,82.967354,2.699171,0.119313,2.8E-5,7.350358,401.30298,120.961395,12.0,40.0,0.0,0.0,120.000145,120.0,146.22954,5.9E-5,0.002046,282.893,317.34406,-0.013455,-1.446636,1932.9852,0.0
0.0,0.0,0.0,0.0,0.0,0.0,0.0,0.0,0.0,0.0,0.0,0.0,0.0,0.0,63.991837,-22.605427,146.22954,0.095221,4.950825,180.01003,82.26305,2.673745,0.075972,1.5E-5,7.410181,398.5137,118.17213,12.0,40.0,0.0,0.0,120.000145,120.0,146.22954,5.8E-5,0.00104,282.893,312.83963,-0.013753,-1.498114,1727.5729,0.0
0.0,0.0,0.0,0.0,0.0,0.0,0.0,0.0,0.0,0.0,0.0,0.0,0.0,0.0,63.991837,-22.605427,146.22954,0.095474,4.950734,180.01004,81.54511,2.648719,-0.037288,-7.0E-6,7.441265,395.6968,115.355225,12.0,40.0,0.0,0.0,120.000145,120.0,146.22954,5.6E-5,-6.04E-4,282.893,308.18613,-0.014038,-1.547076,1508.1432,0.0
0.0,0.0,0.0,0.0,0.0,0.0,0.0,0.0,0.0,0.0,0.0,0.0,0.0,0.0,63.991837,-22.605427,146.22954,0.095686,4.950707,180.01006,80.93625,2.628197,-0.05568,-1.0E-5,7.47699,393.3321,112.9905,12.0,40.0,0.0,0.0,120.000145,120.0,146.22954,5.5E-5,-0.001409,282.893,304.2031,-0.014291,-1.586045,1310.6184,0.0
0.0,0.0,0.0,0.0,0.0,0.0,0.0,0.0,0.0,0.0,0.0,0.0,0.0,0.0,63.991837,-22.605427,146.2295,0.098377,4.951426,180.01027,74.45095,2.444058,-0.244154,-1.5E-5,4.20131,368.67392,88.33235,12.0,40.0,0.0,0.0,90.000145,90.0,146.2295,4.7E-5,-0.001208,282.893,261.6043,-0.015879,-1.89296,-559.0156,0.0
0.0,0.0,0.0,0.0,0.0,0.0,0.0,0.0,0.0,0.0,0.0,0.0,0.0,0.0,63.991837,-22.605427,146.2295,0.09847,4.951466,180.01028,73.59168,2.42386,-0.204447,-1.8E-5,6.44054,366.82748,86.485886,12.0,40.0,0.0,0.0,90.000145,90.0,146.2295,4.6E-5,-0.001308,282.893,256.12686,-0.015996,-1.922626,-648.743,0.0
0.0,0.0,0.0,0.0,0.0,0.0,0.0,0.0,0.0,0.0,0.0,0.0,0.0,0.0,63.991837,-22.605427,146.2295,0.098586,4.95151,180.01028,72.79152,2.405835,-0.026437,-3.0E-6,7.151169,364.49954,84.15797,12.0,40.0,0.0,0.0,90.000145,90.0,146.2295,4.5E-5,-0.001375,282.893,251.09032,-0.016101,-1.948544,-761.9023,0.0
0.0,0.0,0.0,0.0,0.0,0.0,0.0,0.0,0.0,0.0,0.0,0.0,0.0,0.0,63.991837,-22.605427,146.2295,0.098745,4.951556,180.0103,71.97931,2.388287,-0.062662,-9.0E-6,7.339859,361.97314,81.63156,12.0,40.0,0.0,0.0,80.000145,80.0,146.2295,4.4E-5,-9.06E-4,282.893,246.0478,-0.016197,-1.973299,-862.5532,0.0
0.0,0.0,0.0,0.0,0.0,0.0,0.0,0.0,0.0,0.0,0.0,0.0,0.0,0.0,63.991837,-22.605427,146.2295,0.099205,4.951714,180.01035,70.0124,2.348712,-0.166268,-2.2E-5,5.85058,355.0337,74.69209,12.0,40.0,0.0,0.0,80.000145,80.0,146.2295,4.3E-5,-0.001979,282.893,234.15437,-0.016396,-2.027483,-1072.2421,0.0
0.0,0.0,0.0,0.0,0.0,0.0,0.0,0.0,0.0,0.0,0.0,0.0,0.0,0.0,63.991837,-22.605427,146.22949,0.099371,4.95178,180.01035,69.1604,2.332839,-0.07162,-1.0E-5,6.834913,352.99042,72.64885,12.0,40.0,0.0,0.0,70.000145,70.0,146.22949,4.2E-5,-9.39E-4,282.893,229.15337,-0.016481,-2.048695,-1094.6149,0.0
0.0,0.0,0.0,0.0,0.0,0.0,0.0,0.0,0.0,0.0,0.0,0.0,0.0,0.0,63.991837,-22.605427,146.22949,0.099565,4.951844,180.01038,68.21785,2.316099,-0.178046,-2.4E-5,7.263628,350.3861,70.04451,12.0,40.0,0.0,0.0,70.000145,70.0,146.22949,4.1E-5,-0.002549,282.893,223.73218,-0.016567,-2.07075,-1136.6342,0.0
0.0,0.0,0.0,0.0,0.0,0.0,0.0,0.0,0.0,0.0,0.0,0.0,0.0,0.0,63.991837,-22.605427,146.22949,0.099739,4.951916,180.01038,67.26188,2.299996,-0.179023,-2.4E-5,7.369363,347.6364,67.29483,12.0,40.0,0.0,0.0,70.000145,70.0,146.22949,4.0E-5,-0.00208,282.893,218.35666,-0.016648,-2.091727,-1181.0114,0.0
0.0,0.0,0.0,0.0,0.0,0.0,0.0,0.0,0.0,0.0,0.0,0.0,0.0,0.0,63.991837,-22.605427,146.22949,0.099933,4.951999,180.01039,66.21128,2.283299,-0.068183,-1.0E-5,7.399973,344.6175,64.27591,12.0,40.0,0.0,0.0,70.000145,70.0,146.22949,3.9E-5,-8.39E-4,282.893,212.59604,-0.016715,-2.113298,-1225.1154,0.0
0.0,0.0,0.0,0.0,0.0,0.0,0.0,0.0,0.0,0.0,0.0,0.0,0.0,0.0,63.991837,-22.605427,146.22949,0.100133,4.952063,180.0104,65.22794,2.268569,-0.072925,-1.1E-5,7.471626,341.8013,61.459713,12.0,40.0,0.0,0.0,60.00014,60.0,146.22949,3.9E-5,-0.001208,282.893,207.34666,-0.016785,-2.132196,-1262.5175,0.0
0.0,0.0,0.0,0.0,0.0,0.0,0.0,0.0,0.0,0.0,0.0,0.0,0.0,0.0,63.991837,-22.605427,146.22949,0.100313,4.952119,180.01042,64.3155,2.255657,-0.083453,-1.2E-5,7.480924,339.2067,58.86512,12.0,40.0,0.0,0.0,60.00014,60.0,146.22949,3.8E-5,-0.001241,282.893,202.60019,-0.016855,-2.148707,-1293.8706,0.0
0.0,0.0,0.0,0.0,0.0,0.0,0.0,0.0,0.0,0.0,0.0,0.0,0.0,0.0,63.991837,-22.605427,146.22948,0.100507,4.95219,180.01044,63.223923,2.241131,-0.202008,-2.6E-5,7.50855,336.09244,55.75086,12.0,40.0,0.0,0.0,60.00014,60.0,146.22948,3.7E-5,-0.001946,282.893,197.08095,-0.016927,-2.167267,-1329.3344,0.0
0.0,0.0,0.0,0.0,0.0,0.0,0.0,0.0,0.0,0.0,0.0,0.0,0.0,0.0,63.991837,-22.605427,146.22948,0.100667,4.952266,180.01045,62.204002,2.228464,-0.182618,-2.3E-5,7.491648,333.27753,52.93596,12.0,40.0,0.0,0.0,60.00014,60.0,146.22948,3.6E-5,-0.001912,282.893,192.08182,-0.016989,-2.183527,-1355.9779,0.0
0.0,0.0,0.0,0.0,0.0,0.0,0.0,0.0,0.0,0.0,0.0,0.0,0.0,0.0,63.991837,-22.605427,146.22948,0.100838,4.952337,180.01047,61.172695,2.216524,-0.058474,-8.0E-6,7.506474,330.4482,50.106644,12.0,40.0,0.0,0.0,50.00014,50.0,146.22948,3.6E-5,-0.001006,282.893,187.18274,-0.017039,-2.198993,-1380.7719,0.0
0.0,0.0,0.0,0.0,0.0,0.0,0.0,0.0,0.0,0.0,0.0,0.0,0.0,0.0,63.991837,-22.605427,146.22948,0.101018,4.952395,180.01048,60.130405,2.205291,-0.193801,-2.4E-5,7.521979,327.62482,47.283222,12.0,40.0,0.0,0.0,50.00014,50.0,146.22948,3.5E-5,-7.38E-4,282.893,182.39142,-0.017095,-2.213703,-1403.0685,0.0
0.0,0.0,0.0,0.0,0.0,0.0,0.0,0.0,0.0,0.0,0.0,0.0,0.0,0.0,63.991837,-22.605427,146.22948,0.101171,4.952459,180.0105,59.07785,2.194794,-0.180227,-2.1E-5,7.605274,324.79453,44.452934,12.0,40.0,0.0,0.0,50.00014,50.0,146.22948,3.4E-5,-0.00161,282.893,177.71524,-0.017153,-2.227695,-1423.693,0.0
0.0,0.0,0.0,0.0,0.0,0.0,0.0,0.0,0.0,0.0,0.0,0.0,0.0,0.0,63.991837,-22.605427,146.22948,0.101317,4.952526,180.01051,58.015507,2.185051,-0.156795,-1.8E-5,7.573649,321.9547,41.61314,12.0,40.0,0.0,0.0,40.00014,40.0,146.22948,3.4E-5,-0.00151,282.893,173.16116,-0.017203,-2.241002,-1442.9194,0.0
0.0,0.0,0.0,0.0,0.0,0.0,0.0,0.0,0.0,0.0,0.0,0.0,0.0,0.0,63.991837,-22.605427,146.22946,0.101448,4.952586,180.01051,57.03359,2.176786,-0.142916,-1.6E-5,7.560764,319.38794,39.046356,12.0,40.0,0.0,0.0,40.00014,40.0,146.22946,3.3E-5,-0.001342,282.893,169.09952,-0.017251,-2.252629,-1457.5912,0.0
0.0,0.0,0.0,0.0,0.0,0.0,0.0,0.0,0.0,0.0,0.0,0.0,0.0,0.0,63.991837,-22.605427,146.22946,0.101602,4.952652,180.01053,55.863857,2.167849,-0.12637,-1.4E-5,7.60932,316.31003,35.96845,12.0,40.0,0.0,0.0,40.00014,40.0,146.22946,3.2E-5,-0.001208,282.893,164.4454,-0.017295,-2.265698,-1475.3611,0.0
0.0,0.0,0.0,0.0,0.0,0.0,0.0,0.0,0.0,0.0,0.0,0.0,0.0,0.0,63.991837,-22.605427,146.22946,0.101757,4.952702,180.01054,54.775925,2.160418,-0.001453,-0.0,7.605608,313.47824,33.136654,12.0,40.0,0.0,0.0,40.00014,40.0,146.22946,3.2E-5,-3.35E-4,282.893,160.29576,-0.017334,-2.277148,-1490.0237,0.0
0.0,0.0,0.0,0.0,0.0,0.0,0.0,0.0,0.0,0.0,0.0,0.0,0.0,0.0,63.991837,-22.605427,146.22946,0.101913,4.952742,180.01056,53.680687,2.15375,-0.156584,-1.6E-5,7.610665,310.64874,30.30715,12.0,40.0,0.0,0.0,30.000143,30.0,146.22946,3.1E-5,-7.38E-4,282.893,156.29233,-0.017383,-2.288039,-1503.4171,0.0
0.0,0.0,0.0,0.0,0.0,0.0,0.0,0.0,0.0,0.0,0.0,0.0,0.0,0.0,63.991837,-22.605427,146.22946,0.10204,4.95279,180.01056,52.579132,2.147877,-0.138885,-1.3E-5,7.59718,307.8187,27.477116,12.0,40.0,0.0,0.0,30.000143,30.0,146.22946,3.0E-5,-0.001107,282.893,152.44011,-0.017427,-2.298398,-1515.7808,0.0
0.0,0.0,0.0,0.0,0.0,0.0,0.0,0.0,0.0,0.0,0.0,0.0,0.0,0.0,63.991837,-22.605427,146.22946,0.102161,4.952841,180.01057,51.47192,2.142807,-0.116757,-1.1E-5,7.635139,304.97168,24.630098,12.0,40.0,0.0,0.0,30.000143,30.0,146.22946,3.0E-5,-0.001006,282.893,148.74379,-0.017465,-2.30825,-1527.8901,0.0
0.0,0.0,0.0,0.0,0.0,0.0,0.0,0.0,0.0,0.0,0.0,0.0,0.0,0.0,63.991837,-22.605427,146.22946,0.10225,4.952878,180.01059,50.638256,2.139533,-0.10264,-9.0E-6,7.649472,302.8539,22.512331,12.0,40.0,0.0,0.0,30.000143,30.0,146.22946,2.9E-5,-8.72E-4,282.893,146.07639,-0.017501,-2.315322,-1535.6814,0.0
0.0,0.0,0.0,0.0,0.0,0.0,0.0,0.0,0.0,0.0,0.0,0.0,0.0,0.0,63.991837,-22.605427,146.22946,0.102401,4.952937,180.01059,49.24366,2.135086,-0.080245,-7.0E-6,7.344585,299.08362,18.742043,12.0,40.0,0.0,0.0,20.000143,20.0,146.22946,2.9E-5,-7.04E-4,282.893,141.83528,-0.017536,-2.326534,-1556.8114,0.0
0.0,0.0,0.0,0.0,0.0,0.0,0.0,0.0,0.0,0.0,0.0,0.0,0.0,0.0,63.991837,-22.605427,146.22946,0.102515,4.952973,180.0106,48.217693,2.132641,0.069445,7.0E-6,7.471952,296.62543,16.283846,12.0,40.0,0.0,0.0,20.000143,20.0,146.22946,2.8E-5,2.68E-4,282.893,138.89099,-0.017564,-2.334321,-1559.1439,0.0
0.0,0.0,0.0,0.0,0.0,0.0,0.0,0.0,0.0,0.0,0.0,0.0,0.0,0.0,63.991837,-22.605427,146.22946,0.102661,4.953001,180.01062,47.002396,2.130619,-0.03732,-3.0E-6,7.56921,293.59094,13.249357,12.0,40.0,0.0,0.0,20.000143,20.0,146.22946,2.7E-5,-0.001744,282.893,135.59589,-0.017597,-2.343074,-1566.7516,0.0
0.0,0.0,0.0,0.0,0.0,0.0,0.0,0.0,0.0,0.0,0.0,0.0,0.0,0.0,63.991837,-22.605427,146.22946,0.102758,4.95303,180.01062,45.972656,2.129652,-0.098457,-7.0E-6,7.670325,291.01855,10.676966,12.0,40.0,0.0,0.0,10.000142,10.0,146.22946,2.7E-5,-6.71E-4,282.893,132.96623,-0.017638,-2.350118,-1572.9701,0.0
0.0,0.0,0.0,0.0,0.0,0.0,0.0,0.0,0.0,0.0,0.0,0.0,0.0,0.0,63.991837,-22.605427,146.22946,0.102862,4.95307,180.01064,44.755013,2.129406,-0.066181,-5.0E-6,7.645901,287.93408,7.592486,12.0,40.0,0.0,0.0,10.000142,10.0,146.22946,2.6E-5,-5.37E-4,282.893,130.04831,-0.017667,-2.358037,-1581.4904,0.0
0.0,0.0,0.0,0.0,0.0,0.0,0.0,0.0,0.0,0.0,0.0,0.0,0.0,0.0,63.991837,-22.605427,146.22946,0.102945,4.953099,180.01064,43.81855,2.129882,0.133526,1.1E-5,7.609626,285.5581,5.216523,12.0,40.0,0.0,0.0,10.000142,10.0,146.22946,2.6E-5,-6.7E-5,282.893,127.94509,-0.017693,-2.363842,-1587.7032,0.0
0.0,0.0,0.0,0.0,0.0,0.0,0.0,0.0,0.0,0.0,0.0,0.0,0.0,0.0,63.991837,-22.605427,146.22946,0.103081,4.953124,180.01065,42.508484,2.131493,0.109865,9.0E-6,7.614073,282.27155,1.929951,12.0,40.0,0.0,0.0,1.42E-4,0.0,146.22946,2.5E-5,3.35E-4,282.893,125.20888,-0.017719,-2.371573,-1594.2437,0.0
0.0,0.0,0.0,0.0,0.0,0.0,0.0,0.0,0.0,0.0,0.0,0.0,0.0,0.0,63.991837,-22.605427,146.22946,0.103178,4.953145,180.01065,41.387463,2.133745,-0.066525,-4.0E-6,7.651069,279.5018,-0.839781,12.0,40.0,0.0,0.0,1.42E-4,0.0,146.22946,2.5E-5,-5.03E-4,282.893,123.05814,-0.017754,-2.37785,-1599.2377,0.0
0.0,0.0,0.0,0.0,0.0,0.0,0.0,0.0,0.0,0.0,0.0,0.0,0.0,0.0,63.991837,-22.605427,146.22946,0.103258,4.953175,180.01067,40.26938,2.136822,-0.027581,-2.0E-6,7.703814,276.7914,-3.55018,12.0,40.0,0.0,0.0,1.42E-4,0.0,146.22946,2.4E-5,-3.02E-4,282.893,121.0878,-0.01778,-2.383819,-1605.1584,0.0
0.0,0.0,0.0,0.0,0.0,0.0,0.0,0.0,0.0,0.0,0.0,0.0,0.0,0.0,63.991837,-22.605427,146.22946,0.103336,4.953205,180.01067,39.154892,2.140714,0.016732,1.0E-6,7.734635,274.08502,-6.256556,12.0,40.0,0.0,0.0,1.42E-4,0.0,146.22946,2.4E-5,-1.34E-4,282.893,119.29816,-0.017804,-2.389497,-1610.5131,0.0
0.0,0.0,0.0,0.0,0.0,0.0,0.0,0.0,0.0,0.0,0.0,0.0,0.0,0.0,63.991837,-22.605427,146.22946,0.103414,4.953233,180.01068,38.044804,2.145412,0.047305,3.0E-6,7.715876,271.3936,-8.948007,12.0,40.0,0.0,0.0,-9.999858,-10.0,146.22946,2.3E-5,0.0,282.893,117.68919,-0.017826,-2.394897,-1614.9011,0.0
0.0,0.0,0.0,0.0,0.0,0.0,0.0,0.0,0.0,0.0,0.0,0.0,0.0,0.0,63.991837,-22.605427,146.22946,0.10349,4.953257,180.01068,36.939934,2.150912,0.080731,5.0E-6,7.724936,268.68314,-11.658443,12.0,40.0,0.0,0.0,-9.999858,-10.0,146.22946,2.3E-5,1.01E-4,282.893,116.26051,-0.017848,-2.400033,-1619.7472,0.0
0.0,0.0,0.0,0.0,0.0,0.0,0.0,0.0,0.0,0.0,0.0,0.0,0.0,0.0,63.991837,-22.605427,146.22946,0.10356,4.953277,180.01068,35.93239,2.156653,0.111517,6.0E-6,7.700566,266.22775,-14.11382,12.0,40.0,0.0,0.0,-9.999858,-10.0,146.22946,2.2E-5,2.01E-4,282.893,115.10864,-0.017869,-2.404521,-1622.7211,0.0
0.0,0.0,0.0,0.0,0.0,0.0,0.0,0.0,0.0,0.0,0.0,0.0,0.0,0.0,63.991837,-22.605427,146.22946,0.103634,4.953296,180.0107,34.839676,2.163672,0.142537,8.0E-6,7.723472,263.52567,-16.81592,12.0,40.0,0.0,0.0,-9.999858,-10.0,146.22946,2.2E-5,3.35E-4,282.893,114.02314,-0.017889,-2.409187,-1626.6808,0.0
0.0,0.0,0.0,0.0,0.0,0.0,0.0,0.0,0.0,0.0,0.0,0.0,0.0,0.0,63.991837,-22.605427,146.22946,0.103712,4.953314,180.0107,33.66431,2.172158,0.174263,9.0E-6,7.781894,260.5186,-19.823011,12.0,40.0,0.0,0.0,-19.999857,-20.0,146.22946,2.2E-5,4.7E-4,282.893,113.04707,-0.017908,-2.413985,-1633.8689,0.0
0.0,0.0,0.0,0.0,0.0,0.0,0.0,0.0,0.0,0.0,0.0,0.0,0.0,0.0,63.991837,-22.605427,146.22946,0.103782,4.953328,180.01071,32.587833,2.180797,0.213748,1.1E-5,7.738784,257.84085,-22.500744,12.0,40.0,0.0,0.0,-19.999857,-20.0,146.22946,2.1E-5,6.04E-4,282.893,112.32875,-0.017927,-2.418189,-1636.1277,0.0
0.0,0.0,0.0,0.0,0.0,0.0,0.0,0.0,0.0,0.0,0.0,0.0,0.0,0.0,63.991837,-22.605427,146.22946,0.103845,4.953339,180.01071,31.608799,2.189387,0.2333,1.1E-5,7.727533,255.38281,-24.95877,12.0,40.0,0.0,0.0,-19.999857,-20.0,146.22946,2.1E-5,6.71E-4,282.893,111.82255,-0.017946,-2.421861,-1638.1897,0.0
0.0,0.0,0.0,0.0,0.0,0.0,0.0,0.0,0.0,0.0,0.0,0.0,0.0,0.0,63.991837,-22.605427,146.22946,0.103916,4.953351,180.01071,30.46199,2.200356,0.282123,1.3E-5,7.777362,252.45644,-27.885149,12.0,40.0,0.0,0.0,-29.999857,-30.0,146.22946,2.0E-5,6.37E-4,282.893,111.40953,-0.017964,-2.425989,-1641.3135,0.0
0.0,0.0,0.0,0.0,0.0,0.0,0.0,0.0,0.0,0.0,0.0,0.0,0.0,0.0,63.991837,-22.605427,146.22946,0.103999,4.953351,180.01073,29.414,2.211267,0.398315,2.6E-5,7.789634,249.74942,-30.592155,12.0,40.0,0.0,0.0,-29.999857,-30.0,146.22946,2.0E-5,0.001476,282.893,111.20363,-0.017971,-2.429606,-1644.2261,0.0
0.0,0.0,0.0,0.0,0.0,0.0,0.0,0.0,0.0,0.0,0.0,0.0,0.0,0.0,63.991837,-22.605427,146.22946,0.104081,4.953345,180.01073,28.376247,2.222894,0.274004,1.3E-5,7.748393,247.05994,-33.28165,12.0,40.0,0.0,0.0,-29.999857,-30.0,146.22946,2.0E-5,-1.34E-4,282.893,111.16306,-0.017997,-2.433046,-1646.2449,0.0
0.0,0.0,0.0,0.0,0.0,0.0,0.0,0.0,0.0,0.0,0.0,0.0,0.0,0.0,63.991837,-22.605427,146.22946,0.104136,4.953348,180.01073,27.34972,2.235243,0.327751,1.2E-5,7.774821,244.35193,-35.989655,12.0,40.0,0.0,0.0,-29.999857,-30.0,146.22946,1.9E-5,7.04E-4,282.893,111.28464,-0.018019,-2.436318,-1648.847,0.0
0.0,0.0,0.0,0.0,0.0,0.0,0.0,0.0,0.0,0.0,0.0,0.0,0.0,0.0,63.991837,-22.605427,146.22946,0.104186,4.953356,180.01074,26.334845,2.248308,0.393824,1.5E-5,7.767045,241.65967,-38.68192,12.0,40.0,0.0,0.0,-39.99986,-40.0,146.22946,1.9E-5,6.04E-4,282.893,111.564896,-0.018034,-2.43943,-1650.6576,0.0
0.0,0.0,0.0,0.0,0.0,0.0,0.0,0.0,0.0,0.0,0.0,0.0,0.0,0.0,63.991837,-22.605427,146.22946,0.104236,4.953364,180.01074,25.331964,2.262071,0.442188,1.7E-5,7.829104,238.94649,-41.395103,12.0,40.0,0.0,0.0,-39.99986,-40.0,146.22946,1.8E-5,9.39E-4,282.893,112.00014,-0.018048,-2.442391,-1653.1743,0.0
0.0,0.0,0.0,0.0,0.0,0.0,0.0,0.0,0.0,0.0,0.0,0.0,0.0,0.0,63.991837,-22.605427,146.22946,0.104282,4.95337,180.01074,24.423523,2.27529,0.463465,1.8E-5,7.799545,236.47423,-43.867355,12.0,40.0,0.0,0.0,-39.99986,-40.0,146.22946,1.8E-5,0.001174,282.893,112.531906,-0.018062,-2.444977,-1654.7502,0.0
0.0,0.0,0.0,0.0,0.0,0.0,0.0,0.0,0.0,0.0,0.0,0.0,0.0,0.0,63.991837,-22.605427,146.22948,0.104336,4.953374,180.01074,23.363707,2.291641,0.509395,2.0E-5,7.811042,233.54485,-46.796745,12.0,40.0,0.0,0.0,-39.99986,-40.0,146.22948,1.8E-5,0.001073,282.893,113.319626,-0.018075,-2.447884,-1656.7789,0.0
0.0,0.0,0.0,0.0,0.0,0.0,0.0,0.0,0.0,0.0,0.0,0.0,0.0,0.0,63.991837,-22.605427,146.22948,0.104382,4.953375,180.01076,22.478891,2.306081,0.54075,2.1E-5,7.817976,231.07164,-49.26994,12.0,40.0,0.0,0.0,-49.99986,-50.0,146.22948,1.7E-5,0.001342,282.893,114.11704,-0.018088,-2.450223,-1658.1649,0.0
0.0,0.0,0.0,0.0,0.0,0.0,0.0,0.0,0.0,0.0,0.0,0.0,0.0,0.0,63.991837,-22.605427,146.22948,0.104435,4.953374,180.01076,21.447643,2.323847,0.602602,2.4E-5,7.866756,228.1276,-52.213985,12.0,40.0,0.0,0.0,-49.99986,-50.0,146.22948,1.7E-5,0.001208,282.893,115.20905,-0.018101,-2.452853,-1660.5199,0.0
0.0,0.0,0.0,0.0,0.0,0.0,0.0,0.0,0.0,0.0,0.0,0.0,0.0,0.0,63.991837,-22.605427,146.22948,0.10449,4.95337,180.01076,20.510023,2.340911,0.63047,3.6E-5,7.836189,225.43773,-54.90386,12.0,40.0,0.0,0.0,-49.99986,-50.0,146.22948,1.7E-5,0.002482,282.893,116.35598,-0.018109,-2.455157,-1661.4708,0.0
0.0,0.0,0.0,0.0,0.0,0.0,0.0,0.0,0.0,0.0,0.0,0.0,0.0,0.0,63.991837,-22.605427,146.22948,0.104562,4.953353,180.01077,19.586035,2.35859,0.595963,3.6E-5,7.876779,222.72922,-57.612362,12.0,40.0,0.0,0.0,-59.99986,-60.0,146.22948,1.6E-5,0.002214,282.893,117.631226,-0.018119,-2.457349,-1663.0747,0.0
0.0,0.0,0.0,0.0,0.0,0.0,0.0,0.0,0.0,0.0,0.0,0.0,0.0,0.0,63.991837,-22.605427,146.22948,0.104638,4.953336,180.01077,18.676039,2.376869,0.558978,3.5E-5,7.880645,220.02493,-60.316643,12.0,40.0,0.0,0.0,-59.99986,-60.0,146.22948,1.6E-5,0.00208,282.893,119.029724,-0.01813,-2.459433,-1664.4047,0.0
0.0,0.0,0.0,0.0,0.0,0.0,0.0,0.0,0.0,0.0,0.0,0.0,0.0,0.0,63.991837,-22.605427,146.22949,0.104713,4.953328,180.01077,17.779959,2.395733,0.430591,2.0E-5,7.888395,217.32195,-63.01964,12.0,40.0,0.0,0.0,-59.99986,-60.0,146.22949,1.6E-5,0.001711,282.893,120.54626,-0.018145,-2.461416,-1665.5938,0.0
0.0,0.0,0.0,0.0,0.0,0.0,0.0,0.0,0.0,0.0,0.0,0.0,0.0,0.0,63.991837,-22.605427,146.22949,0.104773,4.953338,180.01079,16.898193,2.415177,0.477829,2.3E-5,7.840571,214.62425,-65.71734,12.0,40.0,0.0,0.0,-59.99986,-60.0,146.22949,1.5E-5,0.001208,282.893,122.17548,-0.018159,-2.463301,-1666.4756,0.0
0.0,0.0,0.0,0.0,0.0,0.0,0.0,0.0,0.0,0.0,0.0,0.0,0.0,0.0,63.991837,-22.605427,146.22949,0.104839,4.953356,180.01079,16.030737,2.435189,0.466581,2.6E-5,7.850374,211.93654,-68.405045,12.0,40.0,0.0,0.0,-69.999855,-70.0,146.22949,1.5E-5,0.00151,282.893,123.91194,-0.018168,-2.465095,-1666.9039,0.0
0.0,0.0,0.0,0.0,0.0,0.0,0.0,0.0,0.0,0.0,0.0,0.0,0.0,0.0,63.991837,-22.605427,146.22949,0.104913,4.953375,180.01079,15.177567,2.455753,0.47869,2.9E-5,7.927305,209.22214,-71.119446,12.0,40.0,0.0,0.0,-69.999855,-70.0,146.22949,1.5E-5,0.001711,282.893,125.75007,-0.018178,-2.4668,-1668.3552,0.0
0.0,0.0,0.0,0.0,0.0,0.0,0.0,0.0,0.0,0.0,0.0,0.0,0.0,0.0,63.991837,-22.605427,146.22949,0.104973,4.953388,180.0108,14.547064,2.471529,0.467899,3.0E-5,7.901754,207.2043,-73.137276,12.0,40.0,0.0,0.0,-69.999855,-70.0,146.22949,1.5E-5,0.001778,282.893,127.19198,-0.01819,-2.468025,-1668.6782,0.0
0.0,0.0,0.0,0.0,0.0,0.0,0.0,0.0,0.0,0.0,0.0,0.0,0.0,0.0,63.991837,-22.605427,146.22949,0.105072,4.953404,180.0108,13.582301,2.496656,0.493627,3.4E-5,7.988836,203.93867,-76.4029,12.0,40.0,0.0,0.0,-69.999855,-70.0,146.22949,1.4E-5,0.001409,282.893,129.5366,-0.0182,-2.46984,-1674.0029,0.0
0.0,0.0,0.0,0.0,0.0,0.0,0.0,0.0,0.0,0.0,0.0,0.0,0.0,0.0,63.991837,-22.605427,146.2295,0.105162,4.953415,180.01082,12.770795,2.518747,0.482986,3.4E-5,7.845369,201.2914,-79.050186,12.0,40.0,0.0,0.0,-79.999855,-80.0,146.2295,1.4E-5,0.00208,282.893,131.63867,-0.018213,-2.471314,-1672.3718,0.0
0.0,0.0,0.0,0.0,0.0,0.0,0.0,0.0,0.0,0.0,0.0,0.0,0.0,0.0,63.991837,-22.605427,146.2295,0.105267,4.95342,180.01082,11.907923,2.543245,0.532177,4.8E-5,7.895253,198.38786,-81.95371,12.0,40.0,0.0,0.0,-79.999855,-80.0,146.2295,1.4E-5,0.003321,282.893,134.005,-0.018221,-2.47283,-1672.0931,0.0
0.0,0.0,0.0,0.0,0.0,0.0,0.0,0.0,0.0,0.0,0.0,0.0,0.0,0.0,63.991837,-22.605427,146.2295,0.105387,4.95341,180.01083,11.126012,2.566359,0.507541,4.7E-5,7.913443,195.68924,-84.65234,12.0,40.0,0.0,0.0,-79.999855,-80.0,146.2295,1.3E-5,0.002986,282.893,136.26524,-0.018233,-2.474158,-1672.5557,0.0
0.0,0.0,0.0,0.0,0.0,0.0,0.0,0.0,0.0,0.0,0.0,0.0,0.0,0.0,63.991837,-22.605427,146.22952,0.1055,4.953396,180.01085,10.35795,2.589936,0.466031,3.4E-5,7.970743,192.98277,-87.3588,12.0,40.0,0.0,0.0,-79.999855,-80.0,146.22952,1.3E-5,0.002147,282.893,138.5923,-0.018255,-2.47542,-1673.3065,0.0
0.0,0.0,0.0,0.0,0.0,0.0,0.0,0.0,0.0,0.0,0.0,0.0,0.0,0.0,63.991837,-22.605427,146.22952,0.105583,4.953393,180.01085,9.66629,2.611951,0.524126,3.6E-5,7.966932,190.51233,-89.82925,12.0,40.0,0.0,0.0,-89.999855,-90.0,146.22952,1.3E-5,0.00208,282.893,140.77907,-0.018273,-2.476524,-1673.5375,0.0
0.0,0.0,0.0,0.0,0.0,0.0,0.0,0.0,0.0,0.0,0.0,0.0,0.0,0.0,63.991837,-22.605427,146.22952,0.105673,4.953391,180.01085,8.940678,2.631847,0.50415,3.6E-5,7.973303,187.80797,-92.533615,12.0,40.0,0.0,0.0,-89.999855,-90.0,146.22952,1.3E-5,0.002214,282.893,143.21759,-0.018287,-2.477671,-1674.1177,0.0
0.0,0.0,0.0,0.0,0.0,0.0,0.0,0.0,0.0,0.0,0.0,0.0,0.0,0.0,63.991837,-22.605427,146.22952,0.105779,4.953383,180.01086,8.304131,2.627471,0.415143,3.9E-5,7.945845,185.1178,-95.22379,12.0,40.0,0.0,0.0,-89.999855,-90.0,146.22952,1.2E-5,0.002315,282.893,145.70563,-0.018294,-2.478762,-1674.1024,0.0
0.0,0.0,0.0,0.0,0.0,0.0,0.0,0.0,0.0,0.0,0.0,0.0,0.0,0.0,63.991837,-22.605427,146.22952,0.10591,4.953367,180.01088,7.61178,2.623088,0.176057,1.3E-5,7.985117,182.18492,-98.15666,12.0,40.0,0.0,0.0,-99.999855,-100.0,146.22952,1.2E-5,9.39E-4,282.893,148.45,-0.018311,-2.479884,-1674.8015,0.0
0.0,0.0,0.0,0.0,0.0,0.0,0.0,0.0,0.0,0.0,0.0,0.0,0.0,0.0,63.991837,-22.605427,146.22952,0.106014,4.953362,180.01088,6.970905,2.619384,0.29687,2.5E-5,7.9915,179.4742,-100.86739,12.0,40.0,0.0,0.0,-99.999855,-100.0,146.22952,1.2E-5,4.03E-4,282.893,151.02222,-0.018329,-2.480868,-1675.539,0.0
0.0,0.0,0.0,0.0,0.0,0.0,0.0,0.0,0.0,0.0,0.0,0.0,0.0,0.0,63.991837,-22.605427,146.22954,0.106129,4.953352,180.0109,6.381988,2.616283,0.179797,1.7E-5,7.985888,176.98952,-103.35206,12.0,40.0,0.0,0.0,-99.999855,-100.0,146.22954,1.2E-5,0.001006,282.893,153.40782,-0.018339,-2.481726,-1676.1598,0.0
0.0,0.0,0.0,0.0,0.0,0.0,0.0,0.0,0.0,0.0,0.0,0.0,0.0,0.0,63.991837,-22.605427,146.22954,0.106273,4.953333,180.01091,5.684027,2.612972,0.128756,1.2E-5,7.94666,174.07135,-106.27023,12.0,40.0,0.0,0.0,-99.999855,-100.0,146.22954,1.1E-5,6.04E-4,282.893,156.25508,-0.018357,-2.482692,-1676.1285,0.0
0.0,0.0,0.0,0.0,0.0,0.0,0.0,0.0,0.0,0.0,0.0,0.0,0.0,0.0,63.991837,-22.605427,146.22954,0.106388,4.953319,180.01091,5.091929,2.610467,-0.072192,-6.0E-6,7.946704,171.60117,-108.74042,12.0,40.0,0.0,0.0,-109.999855,-110.0,146.22954,1.1E-5,6.7E-5,282.893,158.68283,-0.018382,-2.483469,-1676.1292,0.0
0.0,0.0,0.0,0.0,0.0,0.0,0.0,0.0,0.0,0.0,0.0,0.0,0.0,0.0,63.991837,-22.605427,146.22954,0.1065,4.953313,180.01093,4.390981,2.60787,-0.06232,-5.0E-6,7.990453,168.65753,-111.684044,12.0,40.0,0.0,0.0,-109.999855,-110.0,146.22954,1.1E-5,-3.35E-4,282.893,161.5676,-0.018402,-2.484342,-1677.075,0.0
0.0,0.0,0.0,0.0,0.0,0.0,0.0,0.0,0.0,0.0,0.0,0.0,0.0,0.0,63.991837,-22.605427,146.22954,0.1066,4.95331,180.01093,3.797068,2.605984,0.117545,1.1E-5,7.976929,166.18855,-114.15303,12.0,40.0,0.0,0.0,-109.999855,-110.0,146.22954,1.1E-5,0.0,282.893,164.01682,-0.018415,-2.485045,-1676.9777,0.0
0.0,0.0,0.0,0.0,0.0,0.0,0.0,0.0,0.0,0.0,0.0,0.0,0.0,0.0,63.991837,-22.605427,146.22954,0.106742,4.953291,180.01094,3.09394,2.604117,0.079506,8.0E-6,7.980224,163.26256,-117.07902,12.0,40.0,0.0,0.0,-109.999855,-110.0,146.22954,1.0E-5,3.02E-4,282.893,166.915,-0.018431,-2.485835,-1677.1691,0.0
0.0,0.0,0.0,0.0,0.0,0.0,0.0,0.0,0.0,0.0,0.0,0.0,0.0,0.0,63.991837,-22.605427,146.22954,0.106855,4.953275,180.01096,2.443759,2.602732,-0.079324,-6.0E-6,7.989731,160.55391,-119.78767,12.0,40.0,0.0,0.0,-119.999855,-120.0,146.22954,1.0E-5,-4.7E-4,282.893,169.58818,-0.018461,-2.486527,-1677.6333,0.0
0.0,0.0,0.0,0.0,0.0,0.0,0.0,0.0,0.0,0.0,0.0,0.0,0.0,0.0,63.991837,-22.605427,146.22954,0.10695,4.953266,180.01096,1.84744,2.601762,-0.057736,-4.0E-6,7.982215,158.08136,-122.26022,12.0,40.0,0.0,0.0,-119.999855,-120.0,146.22954,1.0E-5,-3.69E-4,282.893,172.03224,-0.018481,-2.487132,-1677.6274,0.0
0.0,0.0,0.0,0.0,0.0,0.0,0.0,0.0,0.0,0.0,0.0,0.0,0.0,0.0,63.991837,-22.605427,146.22954,0.107065,4.953253,180.01097,1.142216,2.600981,-0.033633,-3.0E-6,7.982595,155.14407,-125.19751,12.0,40.0,0.0,0.0,-119.999855,-120.0,146.22954,1.0E-5,-2.68E-4,282.893,174.90726,-0.018497,-2.487812,-1678.1841,0.0
0.0,0.0,0.0,0.0,0.0,0.0,0.0,0.0,0.0,0.0,0.0,0.0,0.0,0.0,63.991837,-22.605427,146.22952,0.107164,4.953239,180.01097,0.545275,2.600629,0.17197,1.5E-5,7.94305,152.67847,-127.66312,12.0,40.0,0.0,0.0,-129.99986,-130.0,146.22952,1.0E-5,-2.01E-4,282.893,177.32414,-0.018515,-2.488359,-1677.8497,0.0
0.0,0.0,0.0,0.0,0.0,0.0,0.0,0.0,0.0,0.0,0.0,0.0,0.0,0.0,63.991837,-22.605427,146.22954,0.107306,4.953208,180.01099,-0.160292,2.60058,0.1118,1.1E-5,7.954828,149.75241,-130.58917,12.0,40.0,0.0,0.0,-129.99986,-130.0,146.22954,9.0E-6,5.37E-4,282.893,180.15634,-0.018527,-2.488974,-1677.9398,0.0
0.0,0.0,0.0,0.0,0.0,0.0,0.0,0.0,0.0,0.0,0.0,0.0,0.0,0.0,63.991837,-22.605427,146.22954,0.10743,4.953177,180.011,-0.757443,2.60084,0.096341,9.0E-6,7.976629,147.2655,-133.07608,12.0,40.0,0.0,0.0,-129.99986,-130.0,146.22954,9.0E-6,5.03E-4,282.893,182.52818,-0.018548,-2.489469,-1678.4331,0.0
0.0,0.0,0.0,0.0,0.0,0.0,0.0,0.0,0.0,0.0,0.0,0.0,0.0,0.0,63.991837,-22.605427,146.22954,0.10756,4.953153,180.011,-1.408702,2.601442,0.084268,8.0E-6,7.975418,144.56346,-135.77812,12.0,40.0,0.0,0.0,-129.99986,-130.0,146.22954,9.0E-6,4.03E-4,282.893,185.08548,-0.01857,-2.489984,-1678.5134,0.0
0.0,0.0,0.0,0.0,0.0,0.0,0.0,0.0,0.0,0.0,0.0,0.0,0.0,0.0,63.991837,-22.605427,146.22954,0.107696,4.953141,180.01102,-2.113804,2.602474,0.075158,7.0E-6,7.985094,141.62724,-138.71434,12.0,40.0,0.0,0.0,-139.99986,-140.0,146.22954,9.0E-6,2.68E-4,282.893,187.81537,-0.018591,-2.490513,-1678.9407,0.0
0.0,0.0,0.0,0.0,0.0,0.0,0.0,0.0,0.0,0.0,0.0,0.0,0.0,0.0,63.991837,-22.605427,146.22954,0.107809,4.953141,180.01103,-2.709944,2.603656,0.06918,6.0E-6,7.947416,139.16176,-141.17982,12.0,40.0,0.0,0.0,-139.99986,-140.0,146.22954,9.0E-6,1.68E-4,282.893,190.08842,-0.018612,-2.490939,-1678.5336,0.0
0.0,0.0,0.0,0.0,0.0,0.0,0.0,0.0,0.0,0.0,0.0,0.0,0.0,0.0,63.991837,-22.605427,146.22954,0.107925,4.953151,180.01103,-3.359787,2.605265,-0.094288,-7.0E-6,7.923767,136.46156,-143.88002,12.0,40.0,0.0,0.0,-139.99986,-140.0,146.22954,9.0E-6,-9.06E-4,282.893,192.52565,-0.018634,-2.491382,-1678.4982,0.0
0.0,0.0,0.0,0.0,0.0,0.0,0.0,0.0,0.0,0.0,0.0,0.0,0.0,0.0,63.991837,-22.605427,146.22954,0.108029,4.953178,180.01105,-4.062591,2.607387,-0.056234,-4.0E-6,7.988216,133.52097,-146.82062,12.0,40.0,0.0,0.0,-139.99986,-140.0,146.22954,8.0E-6,-4.7E-4,282.893,195.11153,-0.018655,-2.491837,-1679.0724,0.0
0.0,0.0,0.0,0.0,0.0,0.0,0.0,0.0,0.0,0.0,0.0,0.0,0.0,0.0,63.991837,-22.605427,146.22954,0.108128,4.953207,180.01105,-4.710192,2.609698,-0.018391,-1.0E-6,7.971801,130.82243,-149.51915,12.0,40.0,0.0,0.0,-149.99986,-150.0,146.22954,8.0E-6,-2.35E-4,282.893,197.44418,-0.018674,-2.492236,-1678.9437,0.0
0.0,0.0,0.0,0.0,0.0,0.0,0.0,0.0,0.0,0.0,0.0,0.0,0.0,0.0,63.991837,-22.605427,146.22954,0.108232,4.953235,180.01106,-5.356588,2.612342,0.011204,1.0E-6,7.973969,128.11967,-152.22191,12.0,40.0,0.0,0.0,-149.99986,-150.0,146.22954,8.0E-6,-1.34E-4,282.893,199.72101,-0.018691,-2.492615,-1678.9843,0.0
0.0,0.0,0.0,0.0,0.0,0.0,0.0,0.0,0.0,0.0,0.0,0.0,0.0,0.0,63.991837,-22.605427,146.22954,0.108332,4.953258,180.01106,-5.947926,2.615058,0.033743,3.0E-6,7.966733,125.61471,-154.72688,12.0,40.0,0.0,0.0,-149.99986,-150.0,146.22954,8.0E-6,-6.7E-5,282.893,201.75616,-0.01871,-2.492947,-1680.0645,0.0
0.0,0.0,0.0,0.0,0.0,0.0,0.0,0.0,0.0,0.0,0.0,0.0,0.0,0.0,63.991837,-22.605427,146.22954,0.108458,4.953274,180.01108,-6.591349,2.618342,0.166526,1.6E-5,7.966077,122.93077,-157.41081,12.0,40.0,0.0,0.0,-149.99986,-150.0,146.22954,8.0E-6,7.72E-4,282.893,203.91664,-0.018723,-2.493292,-1679.292,0.0
0.0,0.0,0.0,0.0,0.0,0.0,0.0,0.0,0.0,0.0,0.0,0.0,0.0,0.0,63.991837,-22.605427,146.22954,0.108607,4.953278,180.0111,-7.286793,2.622269,0.150842,1.5E-5,7.977322,120.00226,-160.33932,12.0,40.0,0.0,0.0,-159.99986,-160.0,146.22954,8.0E-6,6.04E-4,282.893,206.18346,-0.018742,-2.493646,-1679.3088,0.0
0.0,0.0,0.0,0.0,0.0,0.0,0.0,0.0,0.0,0.0,0.0,0.0,0.0,0.0,63.991837,-22.605427,146.22954,0.108731,4.953279,180.0111,-7.873601,2.62589,0.142427,1.3E-5,7.973859,117.52599,-162.8156,12.0,40.0,0.0,0.0,-159.99986,-160.0,146.22954,7.0E-6,6.04E-4,282.893,208.03905,-0.018765,-2.493931,-1679.248,0.0
0.0,0.0,0.0,0.0,0.0,0.0,0.0,0.0,0.0,0.0,0.0,0.0,0.0,0.0,63.991837,-22.605427,146.22954,0.108874,4.953279,180.01111,-8.564955,2.630524,0.132696,1.2E-5,7.934802,114.60044,-165.74115,12.0,40.0,0.0,0.0,-159.99986,-160.0,146.22954,7.0E-6,6.04E-4,282.893,210.15521,-0.018785,-2.494252,-1679.1246,0.0
0.0,0.0,0.0,0.0,0.0,0.0,0.0,0.0,0.0,0.0,0.0,0.0,0.0,0.0,63.991837,-22.605427,146.22954,0.108987,4.953286,180.01112,-9.201124,2.635137,0.005018,0.0,7.973962,111.88973,-168.45184,12.0,40.0,0.0,0.0,-169.99986,-170.0,146.22954,7.0E-6,-2.01E-4,282.893,212.03217,-0.018812,-2.494533,-1679.416,0.0
0.0,0.0,0.0,0.0,0.0,0.0,0.0,0.0,0.0,0.0,0.0,0.0,0.0,0.0,63.991837,-22.605427,146.22954,0.109092,4.953301,180.01112,-9.834749,2.640076,0.040301,3.0E-6,7.964777,109.19505,-171.14653,12.0,40.0,0.0,0.0,-169.99986,-170.0,146.22954,7.0E-6,-0.0,282.893,213.83344,-0.018832,-2.4948,-1679.0686,0.0
0.0,0.0,0.0,0.0,0.0,0.0,0.0,0.0,0.0,0.0,0.0,0.0,0.0,0.0,63.991837,-22.605427,146.22954,0.109207,4.953308,180.01114,-10.413178,2.644892,0.178406,1.7E-5,7.964548,106.71721,-173.62437,12.0,40.0,0.0,0.0,-169.99986,-170.0,146.22954,7.0E-6,8.72E-4,282.893,215.41634,-0.018842,-2.495033,-1679.0535,0.0
0.0,0.0,0.0,0.0,0.0,0.0,0.0,0.0,0.0,0.0,0.0,0.0,0.0,0.0,63.991837,-22.605427,146.22954,0.109346,4.953307,180.01115,-11.094561,2.650924,0.051499,4.0E-6,7.97882,103.78512,-176.55646,12.0,40.0,0.0,0.0,-169.99986,-170.0,146.22954,7.0E-6,-1.68E-4,282.893,217.20082,-0.018873,-2.495296,-1679.1835,0.0
0.0,0.0,0.0,0.0,0.0,0.0,0.0,0.0,0.0,0.0,0.0,0.0,0.0,0.0,63.991837,-22.605427,146.22954,0.109457,4.953312,180.01115,-11.720545,2.656823,0.07903,6.0E-6,7.982309,101.08459,-179.25699,12.0,40.0,0.0,0.0,-179.99986,-180.0,146.22954,7.0E-6,1.01E-4,282.893,218.7634,-0.018896,-2.495526,-1679.0681,0.0
0.0,0.0,0.0,0.0,0.0,0.0,0.0,0.0,0.0,0.0,0.0,0.0,0.0,0.0,63.991837,-22.605427,146.22954,0.109576,4.95331,180.01117,-12.291606,2.662512,0.197459,2.0E-5,7.937671,98.61978,-181.7218,12.0,40.0,0.0,0.0,-179.99986,-180.0,146.22954,7.0E-6,0.001141,282.893,220.12305,-0.018911,-2.495727,-1678.5311,0.0
0.0,0.0,0.0,0.0,0.0,0.0,0.0,0.0,0.0,0.0,0.0,0.0,0.0,0.0,63.991837,-22.605427,146.22954,0.10973,4.953297,180.01118,-12.963592,2.669576,0.189012,1.9E-5,7.983039,95.6807,-184.66087,12.0,40.0,0.0,0.0,-179.99986,-180.0,146.22954,6.0E-6,8.72E-4,282.893,221.63885,-0.018931,-2.495952,-1678.9402,0.0
0.0,0.0,0.0,0.0,0.0,0.0,0.0,0.0,0.0,0.0,0.0,0.0,0.0,0.0,63.991837,-22.605427,146.22954,0.109864,4.953281,180.01118,-13.580939,2.676422,0.068403,6.0E-6,7.968204,92.981674,-187.35991,12.0,40.0,0.0,0.0,-179.99986,-180.0,146.22954,6.0E-6,-1.01E-4,282.893,222.94936,-0.018958,-2.49615,-1678.7448,0.0
0.0,0.0,0.0,0.0,0.0,0.0,0.0,0.0,0.0,0.0,0.0,0.0,0.0,0.0,63.991837,-22.605427,146.22954,0.109969,4.953277,180.0112,-14.143862,2.682968,0.093289,8.0E-6,7.97308,90.44793,-189.89366,12.0,40.0,0.0,0.0,-189.99986,-190.0,146.22954,6.0E-6,2.68E-4,282.893,224.07504,-0.018982,-2.496323,-1680.884,0.0
0.0,0.0,0.0,0.0,0.0,0.0,0.0,0.0,0.0,0.0,0.0,0.0,0.0,0.0,63.991837,-22.605427,146.22954,0.110113,4.953265,180.01122,-14.805231,2.691042,0.21051,2.2E-5,7.946683,87.55132,-192.79025,12.0,40.0,0.0,0.0,-189.99986,-190.0,146.22954,6.0E-6,0.001107,282.893,225.31137,-0.018991,-2.496517,-1679.4802,0.0
0.0,0.0,0.0,0.0,0.0,0.0,0.0,0.0,0.0,0.0,0.0,0.0,0.0,0.0,63.991837,-22.605427,146.22954,0.110246,4.953248,180.01122,-15.412663,2.698809,0.089065,8.0E-6,7.926801,84.86603,-195.47556,12.0,40.0,0.0,0.0,-189.99986,-190.0,146.22954,6.0E-6,6.04E-4,282.893,226.36163,-0.019019,-2.496687,-1678.6984,0.0
0.0,0.0,0.0,0.0,0.0,0.0,0.0,0.0,0.0,0.0,0.0,0.0,0.0,0.0,63.991837,-22.605427,146.22954,0.110355,4.953238,180.01123,-15.966157,2.706193,0.123086,1.1E-5,7.959173,82.38925,-197.95233,12.0,40.0,0.0,0.0,-199.99986,-200.0,146.22954,6.0E-6,6.04E-4,282.893,227.24734,-0.019042,-2.496836,-1678.6073,0.0
0.0,0.0,0.0,0.0,0.0,0.0,0.0,0.0,0.0,0.0,0.0,0.0,0.0,0.0,63.991837,-22.605427,146.22955,0.110488,4.953225,180.01125,-16.61631,2.715245,0.148794,1.3E-5,7.97427,79.4568,-200.88478,12.0,40.0,0.0,0.0,-199.99986,-200.0,146.22955,6.0E-6,5.37E-4,282.893,228.19893,-0.019063,-2.497003,-1678.7189,0.0
0.0,0.0,0.0,0.0,0.0,0.0,0.0,0.0,0.0,0.0,0.0,0.0,0.0,0.0,63.991837,-22.605427,146.22955,0.110631,4.953202,180.01125,-17.212341,2.723912,0.23649,2.7E-5,7.961665,76.75981,-203.58177,12.0,40.0,0.0,0.0,-199.99986,-200.0,146.22955,6.0E-6,0.001543,282.893,228.98578,-0.019079,-2.49715,-1678.4233,0.0
0.0,0.0,0.0,0.0,0.0,0.0,0.0,0.0,0.0,0.0,0.0,0.0,0.0,0.0,63.991837,-22.605427,146.22955,0.110772,4.953174,180.01126,-17.80507,2.73287,0.134153,1.2E-5,7.937498,74.06093,-206.28065,12.0,40.0,0.0,0.0,-199.99986,-200.0,146.22955,5.0E-6,8.05E-4,282.893,229.68498,-0.019106,-2.497289,-1678.2047,0.0
0.0,0.0,0.0,0.0,0.0,0.0,0.0,0.0,0.0,0.0,0.0,0.0,0.0,0.0,63.991837,-22.605427,146.22955,0.110907,4.953147,180.01128,-18.393484,2.742119,0.225146,2.4E-5,7.96702,71.357834,-208.98375,12.0,40.0,0.0,0.0,-209.99986,-210.0,146.22955,5.0E-6,0.002147,282.893,230.29686,-0.019125,-2.497422,-1678.161,0.0
0.0,0.0,0.0,0.0,0.0,0.0,0.0,0.0,0.0,0.0,0.0,0.0,0.0,0.0,63.991837,-22.605427,146.22955,0.11104,4.953118,180.01128,-18.929579,2.750849,0.020219,2.0E-6,7.976589,68.874214,-211.46738,12.0,40.0,0.0,0.0,-209.99986,-210.0,146.22955,5.0E-6,0.005233,282.893,230.78148,-0.019161,-2.497537,-1678.3436,0.0
0.0,0.0,0.0,0.0,0.0,0.0,0.0,0.0,0.0,0.0,0.0,0.0,0.0,0.0,63.991837,-22.605427,146.22955,0.111184,4.953083,180.01129,-19.510433,2.760647,0.015763,2.0E-6,7.977584,66.17255,-214.16904,12.0,40.0,0.0,0.0,-209.99986,-210.0,146.22955,5.0E-6,0.005602,282.893,231.2276,-0.019197,-2.497658,-1678.2319,0.0
0.0,0.0,0.0,0.0,0.0,0.0,0.0,0.0,0.0,0.0,0.0,0.0,0.0,0.0,63.991837,-22.605427,146.22955,0.111341,4.953043,180.0113,-20.134897,2.771581,0.36973,4.3E-5,7.97213,63.239258,-217.10233,12.0,40.0,0.0,0.0,-209.99986,-210.0,146.22955,5.0E-6,-0.003287,282.893,231.61461,-0.019232,-2.497781,-1678.3549,0.0
0.0,0.0,0.0,0.0,0.0,0.0,0.0,0.0,0.0,0.0,0.0,0.0,0.0,0.0,63.991837,-22.605427,146.22955,0.111483,4.953007,180.01132,-20.707104,2.781963,0.318964,3.5E-5,7.959219,60.54192,-219.79967,12.0,40.0,0.0,0.0,-219.99986,-220.0,146.22955,5.0E-6,-0.001275,282.893,231.884,-0.019269,-2.49789,-1678.0527,0.0
0.0,0.0,0.0,0.0,0.0,0.0,0.0,0.0,0.0,0.0,0.0,0.0,0.0,0.0,63.991837,-22.605427,146.22957,0.111615,4.952972,180.01132,-21.227928,2.791722,0.204642,2.0E-5,7.967861,58.06119,-222.2804,12.0,40.0,0.0,0.0,-219.99986,-220.0,146.22957,5.0E-6,-2.68E-4,282.893,232.05789,-0.019287,-2.497984,-1678.1008,0.0
0.0,0.0,0.0,0.0,0.0,0.0,0.0,0.0,0.0,0.0,0.0,0.0,0.0,0.0,63.991837,-22.605427,146.22957,0.111761,4.952935,180.01134,-21.838673,2.80355,0.214221,2.0E-5,7.969026,55.129017,-225.21257,12.0,40.0,0.0,0.0,-219.99986,-220.0,146.22957,5.0E-6,-4.03E-4,282.893,232.17465,-0.019306,-2.498091,-1678.1681,0.0
0.0,0.0,0.0,0.0,0.0,0.0,0.0,0.0,0.0,0.0,0.0,0.0,0.0,0.0,63.991837,-22.605427,146.22957,0.111863,4.952914,180.01135,-22.351555,2.813803,0.191916,1.4E-5,7.932946,52.664433,-227.67715,12.0,40.0,0.0,0.0,-229.99986,-230.0,146.22957,5.0E-6,9.39E-4,282.893,232.19963,-0.019333,-2.498177,-1677.573,0.0
0.0,0.0,0.0,0.0,0.0,0.0,0.0,0.0,0.0,0.0,0.0,0.0,0.0,0.0,63.991837,-22.605427,146.22957,0.111968,4.9529,180.01135,-22.906582,2.825246,0.221929,1.7E-5,7.935957,49.96092,-230.38066,12.0,40.0,0.0,0.0,-229.99986,-230.0,146.22957,5.0E-6,0.001107,282.893,232.15117,-0.019352,-2.498266,-1677.5233,0.0
0.0,0.0,0.0,0.0,0.0,0.0,0.0,0.0,0.0,0.0,0.0,0.0,0.0,0.0,63.991837,-22.605427,146.22957,0.112075,4.952888,180.01137,-23.45707,2.836952,0.243131,1.9E-5,7.932921,47.25847,-233.08311,12.0,40.0,0.0,0.0,-229.99986,-230.0,146.22957,4.0E-6,0.001208,282.893,232.02534,-0.019369,-2.498351,-1677.4253,0.0
0.0,0.0,0.0,0.0,0.0,0.0,0.0,0.0,0.0,0.0,0.0,0.0,0.0,0.0,63.991837,-22.605427,146.22957,0.112184,4.952875,180.01137,-24.003004,2.84892,0.256189,2.1E-5,7.934731,44.55453,-235.78705,12.0,40.0,0.0,0.0,-229.99986,-230.0,146.22957,4.0E-6,0.001308,282.893,231.82391,-0.019388,-2.498431,-1677.3878,0.0
0.0,0.0,0.0,0.0,0.0,0.0,0.0,0.0,0.0,0.0,0.0,0.0,0.0,0.0,63.991837,-22.605427,146.22957,0.112306,4.952858,180.01138,-24.58924,2.862175,0.283536,2.4E-5,7.970385,41.615685,-238.72589,12.0,40.0,0.0,0.0,-239.99986,-240.0,146.22957,4.0E-6,0.001073,282.893,231.52261,-0.019406,-2.498514,-1677.7235,0.0
0.0,0.0,0.0,0.0,0.0,0.0,0.0,0.0,0.0,0.0,0.0,0.0,0.0,0.0,63.991837,-22.605427,146.22958,0.11243,4.952839,180.0114,-25.125357,2.874674,0.362302,3.8E-5,7.96515,38.914684,-241.4269,12.0,40.0,0.0,0.0,-239.99986,-240.0,146.22958,4.0E-6,0.001845,282.893,231.16992,-0.019421,-2.498587,-1677.5555,0.0
0.0,0.0,0.0,0.0,0.0,0.0,0.0,0.0,0.0,0.0,0.0,0.0,0.0,0.0,63.991837,-22.605427,146.22958,0.112567,4.952809,180.0114,-25.657013,2.887324,0.345109,3.7E-5,6.160832,36.885777,-243.45581,12.0,40.0,0.0,0.0,-239.99986,-240.0,146.22958,4.0E-6,0.001744,282.893,230.74785,-0.019444,-2.498656,-1650.7112,0.0
0.0,0.0,0.0,0.0,0.0,0.0,0.0,0.0,0.0,0.0,0.0,0.0,0.0,0.0,63.991837,-22.605427,146.22958,0.112702,4.952778,180.01141,-26.184204,2.900177,0.241321,2.1E-5,4.209862,36.139523,-244.20206,12.0,40.0,0.0,0.0,-239.99986,-240.0,146.22958,4.0E-6,9.73E-4,282.893,230.25858,-0.019469,-2.498721,-1573.1873,0.0
0.0,0.0,0.0,0.0,0.0,0.0,0.0,0.0,0.0,0.0,0.0,0.0,0.0,0.0,63.991837,-22.605427,146.22958,0.112815,4.952758,180.01143,-26.706518,2.91327,0.280753,2.3E-5,3.240911,35.871094,-244.47049,12.0,40.0,0.0,0.0,-239.99986,-240.0,146.22958,4.0E-6,0.001141,282.893,229.70442,-0.019492,-2.498784,-1476.4324,0.0
0.0,0.0,0.0,0.0,0.0,0.0,0.0,0.0,0.0,0.0,0.0,0.0,0.0,0.0,63.991837,-22.605427,146.22958,0.112929,4.952742,180.01143,-27.224014,2.926603,0.278846,2.4E-5,2.817885,35.770897,-244.57068,12.0,40.0,0.0,0.0,-239.99986,-240.0,146.22958,4.0E-6,0.001476,282.893,229.08778,-0.01951,-2.498843,-1372.5668,0.0
0.0,0.0,0.0,0.0,0.0,0.0,0.0,0.0,0.0,0.0,0.0,0.0,0.0,0.0,63.991837,-22.605427,146.22958,0.113065,4.952717,180.01144,-27.736486,2.940172,0.34925,3.8E-5,2.650814,35.72983,-244.61176,12.0,40.0,0.0,0.0,-239.99986,-240.0,146.22958,4.0E-6,0.002013,282.893,228.41109,-0.019519,-2.4989,-1266.0358,0.0
0.0,0.0,0.0,0.0,0.0,0.0,0.0,0.0,0.0,0.0,0.0,0.0,0.0,0.0,63.991837,-22.605427,146.2296,0.113183,4.952693,180.01146,-28.202536,2.952817,0.267112,2.3E-5,2.590034,35.71094,-244.63065,12.0,40.0,0.0,0.0,-239.99986,-240.0,146.2296,4.0E-6,0.00161,282.893,227.74022,-0.01955,-2.498949,-1167.4723,0.0
0.0,0.0,0.0,0.0,0.0,0.0,0.0,0.0,0.0,0.0,0.0,0.0,0.0,0.0,63.991837,-22.605427,146.2296,0.113327,4.952666,180.01146,-28.747633,2.968005,0.344574,3.8E-5,2.561722,35.696754,-244.64482,12.0,40.0,0.0,0.0,-239.99986,-240.0,146.2296,4.0E-6,0.002281,282.893,226.8878,-0.019564,-2.499005,-1050.5596,0.0
0.0,0.0,0.0,0.0,0.0,0.0,0.0,0.0,0.0,0.0,0.0,0.0,0.0,0.0,63.991837,-22.605427,146.2296,0.113467,4.952635,180.01147,-29.246046,2.982263,0.412864,4.5E-5,2.550964,35.686413,-244.65517,12.0,40.0,0.0,0.0,-239.99986,-240.0,146.2296,4.0E-6,8.72E-4,282.893,226.04643,-0.019579,-2.499053,-942.48346,0.0
0.0,0.0,0.0,0.0,0.0,0.0,0.0,0.0,0.0,0.0,0.0,0.0,0.0,0.0,63.991837,-22.605427,146.2296,0.113588,4.95261,180.01149,-29.698818,2.995529,0.283026,2.6E-5,2.545278,35.677765,-244.66382,12.0,40.0,0.0,0.0,-239.99986,-240.0,146.2296,3.0E-6,0.001275,282.893,225.2316,-0.019603,-2.499096,-843.36475,0.0
0.0,0.0,0.0,0.0,0.0,0.0,0.0,0.0,0.0,0.0,0.0,0.0,0.0,0.0,63.991837,-22.605427,146.2296,0.11373,4.952584,180.01149,-29.960093,3.003281,0.340719,3.5E-5,2.540766,35.668,-244.67358,12.0,40.0,0.0,0.0,-239.99986,-240.0,146.2296,3.0E-6,0.002147,282.893,224.2178,-0.019617,-2.499144,-726.1994,0.0
0.0,0.0,0.0,0.0,0.0,0.0,0.0,0.0,0.0,0.0,0.0,0.0,0.0,0.0,63.991837,-22.605427,146.22961,0.113848,4.952557,180.0115,-29.960493,3.003203,0.209486,1.3E-5,2.539129,35.659477,-244.6821,12.0,40.0,0.0,0.0,-239.99986,-240.0,146.22961,3.0E-6,0.001006,282.893,223.23607,-0.01965,-2.499186,-618.014,0.0
0.0,0.0,0.0,0.0,0.0,0.0,0.0,0.0,0.0,0.0,0.0,0.0,0.0,0.0,63.991837,-22.605427,146.22961,0.113914,4.952543,180.0115,-29.960726,3.003126,0.232717,1.0E-5,2.538352,35.651882,-244.6897,12.0,40.0,0.0,0.0,-239.99986,-240.0,146.22961,3.0E-6,5.37E-4,282.893,222.29988,-0.019681,-2.499222,-518.83356,0.0
0.0,0.0,0.0,0.0,0.0,0.0,0.0,0.0,0.0,0.0,0.0,0.0,0.0,0.0,63.991837,-22.605427,146.22961,0.113966,4.952537,180.01152,-29.96087,3.003035,0.238995,7.0E-6,2.538045,35.64297,-244.69861,12.0,40.0,0.0,0.0,-239.99986,-240.0,146.22961,3.0E-6,4.03E-4,282.893,221.15184,-0.019705,-2.499263,-401.63577,0.0
0.0,0.0,0.0,0.0,0.0,0.0,0.0,0.0,0.0,0.0,0.0,0.0,0.0,0.0,63.991837,-22.605427,146.22961,0.113998,4.952534,180.01152,-29.960953,3.002958,0.241626,5.0E-6,2.537937,35.635452,-244.70613,12.0,40.0,0.0,0.0,-239.99986,-240.0,146.22961,3.0E-6,3.02E-4,282.893,220.14774,-0.019726,-2.499296,-302.49963,0.0
0.0,0.0,0.0,0.0,0.0,0.0,0.0,0.0,0.0,0.0,0.0,0.0,0.0,0.0,63.991837,-22.605427,146.22961,0.114025,4.952532,180.01152,-29.961018,3.002867,0.243941,4.0E-6,2.537809,35.626568,-244.71501,12.0,40.0,0.0,0.0,-239.99986,-240.0,146.22961,3.0E-6,1.68E-4,282.893,218.92564,-0.019744,-2.499333,-185.4237,0.0
0.0,0.0,0.0,0.0,0.0,0.0,0.0,0.0,0.0,0.0,0.0,0.0,0.0,0.0,63.991837,-22.605427,146.22961,0.114041,4.952532,180.01152,-29.961056,3.002789,0.244627,3.0E-6,2.537753,35.619064,-244.72252,12.0,40.0,0.0,0.0,-239.99986,-240.0,146.22961,3.0E-6,1.34E-4,282.893,217.86418,-0.019761,-2.499363,-86.55812,0.0
0.0,0.0,0.0,0.0,0.0,0.0,0.0,0.0,0.0,0.0,0.0,0.0,0.0,0.0,63.991837,-22.605427,146.22961,0.114054,4.952532,180.01152,-29.961086,3.002704,0.244602,2.0E-6,2.537392,35.610897,-244.73068,12.0,40.0,0.0,0.0,-239.99986,-240.0,146.22961,3.0E-6,6.7E-5,282.893,216.68033,-0.019775,-2.499394,-15.15396,0.0
0.0,0.0,0.0,0.0,0.0,0.0,0.0,0.0,0.0,0.0,0.0,0.0,0.0,0.0,63.991837,-22.605427,146.22961,0.114064,4.952532,180.01152,-29.96111,3.002612,0.243789,1.0E-6,2.537352,35.602013,-244.73956,12.0,40.0,0.0,0.0,-239.99986,-240.0,146.22961,3.0E-6,6.7E-5,282.893,215.37059,-0.019788,-2.499426,-17.854986,0.0
0.0,0.0,0.0,0.0,0.0,0.0,0.0,0.0,0.0,0.0,0.0,0.0,0.0,0.0,63.991837,-22.605427,146.22961,0.11407,4.952532,180.01152,-29.961124,3.002527,0.239723,1.0E-6,2.5376,35.5938,-244.74779,12.0,40.0,0.0,0.0,-239.99986,-240.0,146.22961,3.0E-6,3.4E-5,282.893,214.13956,-0.0198,-2.499454,-17.892447,0.0
0.0,0.0,0.0,0.0,0.0,0.0,0.0,0.0,0.0,0.0,0.0,0.0,0.0,0.0,63.991837,-22.605427,146.22961,0.114074,4.952532,180.01152,-29.961134,3.002442,0.232871,1.0E-6,2.537452,35.585636,-244.75595,12.0,40.0,0.0,0.0,-239.99986,-240.0,146.22961,3.0E-6,0.0,282.893,212.89029,-0.019811,-2.499481,-17.836222,0.0
0.0,0.0,0.0,0.0,0.0,0.0,0.0,0.0,0.0,0.0,0.0,0.0,0.0,0.0,63.991837,-22.605427,146.22961,0.114077,4.952532,180.01152,-29.961142,3.002363,0.23225,0.0,2.537137,35.578136,-244.76344,12.0,40.0,0.0,0.0,-239.99986,-240.0,146.22961,3.0E-6,0.0,282.893,211.73154,-0.01982,-2.499504,-14.968249,0.0
0.0,0.0,0.0,0.0,0.0,0.0,0.0,0.0,0.0,0.0,0.0,0.0,0.0,0.0,63.991837,-22.605427,146.22961,0.114079,4.952532,180.01152,-29.961147,3.002271,0.18548,0.0,2.537294,35.569256,-244.77232,12.0,40.0,0.0,0.0,-239.99986,-240.0,146.22961,3.0E-6,0.0,282.893,210.34837,-0.019828,-2.499531,-17.821367,0.0
0.0,0.0,0.0,0.0,0.0,0.0,0.0,0.0,0.0,0.0,0.0,0.0,0.0,0.0,63.991837,-22.605427,146.22961,0.114081,4.952532,180.01152,-29.961151,3.002185,0.186662,0.0,2.536273,35.561,-244.78058,12.0,40.0,0.0,0.0,-239.99986,-240.0,146.22961,3.0E-6,0.0,282.893,209.06133,-0.019836,-2.499553,-17.690311,0.0
0.0,0.0,0.0,0.0,0.0,0.0,0.0,0.0,0.0,0.0,0.0,0.0,0.0,0.0,63.991837,-22.605427,146.22961,0.114082,4.952532,180.01152,-29.961155,3.0021,0.176104,0.0,2.536963,35.55285,-244.78873,12.0,40.0,0.0,0.0,-239.99986,-240.0,146.22961,3.0E-6,0.0,282.893,207.76721,-0.019843,-2.499575,-17.754723,0.0
0.0,0.0,0.0,0.0,0.0,0.0,0.0,0.0,0.0,0.0,0.0,0.0,0.0,0.0,63.991837,-22.605427,146.22961,0.114082,4.952533,180.01152,-29.961157,3.002021,0.137844,0.0,2.537053,35.54534,-244.79625,12.0,40.0,0.0,0.0,-239.99986,-240.0,146.22961,3.0E-6,0.0,282.893,206.57704,-0.019849,-2.499594,-15.100351,0.0
0.0,0.0,0.0,0.0,0.0,0.0,0.0,0.0,0.0,0.0,0.0,0.0,0.0,0.0,63.991837,-22.605427,146.22961,0.114082,4.952533,180.01152,-29.961157,3.001935,-0.135037,-0.0,2.536908,35.537136,-244.80444,12.0,40.0,0.0,0.0,-239.99986,-240.0,146.22961,2.0E-6,3.4E-5,282.893,205.2769,-0.019855,-2.499614,-15.131468,0.0
