AILERON,ELEVATOR,RUDDER,FLAPS,SLATS,SPEEDBRAKE,THROTTLE0,THROTTLE1,ENGINE-PUMP0,ENGINE-PUMP1,ELECTRIC-PUMP0,ELECTRIC-PUMP1,EXTERNAL-POWER,APU-GENERATOR,LATITUDE-DEG,LONGITUDE-DEG,ALTITUDE-FT,ROLL-DEG,PITCH-DEG,HEADING-DEG,SIDE-SLIP-DEG,AIRSPEED-KT,GLIDESLOPE,VERTICAL-SPEED-FPS,AIRSPEED-INDICATOR_INDICATED-SPEED-KT,ALTIMETER_INDICATED-ALTITUDE-FT,ALTIMETER_PRESSURE-ALT-FT,ATTITUDE-INDICATOR_INDICATED-PITCH-DEG,ATTITUDE-INDICATOR_INDICATED-ROLL-DEG,ATTITUDE-INDICATOR_INTERNAL-PITCH-DEG,ATTITUDE-INDICATOR_INTERNAL-ROLL-DEG,ENCODER_INDICATED-ALTITUDE-FT,ENCODER_PRESSURE-ALT-FT,GPS_INDICATED-ALTITUDE-FT,GPS_INDICATED-GROUND-SPEED-KT,GPS_INDICATED-VERTICAL-SPEED,INDICATED-HEADING-DEG,MAGNETIC-COMPASS_INDICATED-HEADING-DEG,SLIP-SKID-BALL_INDICATED-SLIP-SKID,TURN-INDICATOR_INDICATED-TURN-RATE,VERTICAL-SPEED-INDICATOR_INDICATED-SPEED-FPM,ENGINE_RPM,
aileron:0.000000,elevator:0.000000,rudder:0.000000,flaps:0.000000,slats:0.000000,speedbrake:0.000000,throttle0:0.000000,throttle1:0.000000,engine-pump0:0,engine-pump1:0,electric-pump0:0,electric-pump1:0,external-power:0,APU-generator:0,latitude-deg:63.992,longitude-deg:-22.605,altitude-ft:-9999.000,roll-deg:0.000,pitch-deg:0.424,heading-deg:180.018,side-slip-deg:0.000,airspeed-kt:0.000,glideslope:0.000,vertical-speed-fps:0.000,airspeed-indicator_indicated-speed-kt:0.000000,altimeter_indicated-altitude-ft:0.000000,altimeter_pressure-alt-ft:0.000000,attitude-indicator_indicated-pitch-deg:0.000000,attitude-indicator_indicated-roll-deg:0.000000,attitude-indicator_internal-pitch-deg:0.000000,attitude-indicator_internal-roll-deg:0.000000,encoder_indicated-altitude-ft:0.000000,encoder_pressure-alt-ft:0.000000,gps_indicated-altitude-ft:0.000000,gps_indicated-ground-speed-kt:0.000000,gps_indicated-vertical-speed:0.000000,indicated-heading-deg:0.000000,magnetic-compass_indicated-heading-deg:0.000000,slip-skid-ball_indicated-slip-skid:0.000000,turn-indicator_indicated-turn-rate:0.000000,vertical-speed-indicator_indicated-speed-fpm:0.000000,engine_rpm:0.000000 
aileron:0.000000,elevator:0.000000,rudder:0.000000,flaps:0.000000,slats:0.000000,speedbrake:0.000000,throttle0:0.000000,throttle1:0.000000,engine-pump0:0,engine-pump1:0,electric-pump0:0,electric-pump1:0,external-power:0,APU-generator:0,latitude-deg:63.992,longitude-deg:-22.605,altitude-ft:-9999.000,roll-deg:0.000,pitch-deg:0.424,heading-deg:180.018,side-slip-deg:0.000,airspeed-kt:0.000,glideslope:0.000,vertical-speed-fps:0.000,airspeed-indicator_indicated-speed-kt:0.000000,altimeter_indicated-altitude-ft:316.070953,altimeter_pressure-alt-ft:1.193444,attitude-indicator_indicated-pitch-deg:12.000000,attitude-indicator_indicated-roll-deg:40.000000,attitude-indicator_internal-pitch-deg:0.000000,attitude-indicator_internal-roll-deg:0.000000,encoder_indicated-altitude-ft:0.000000,encoder_pressure-alt-ft:0.000000,gps_indicated-altitude-ft:0.000000,gps_indicated-ground-speed-kt:0.000000,gps_indicated-vertical-speed:0.000000,indicated-heading-deg:192.901657,magnetic-compass_indicated-heading-deg:0.000000,slip-skid-ball_indicated-slip-skid:0.000000,turn-indicator_indicated-turn-rate:0.000000,vertical-speed-indicator_indicated-speed-fpm:0.000000,engine_rpm:0.000000 
aileron:0.000000,elevator:0.000000,rudder:0.000000,flaps:0.000000,slats:0.000000,speedbrake:0.000000,throttle0:0.000000,throttle1:0.000000,engine-pump0:0,engine-pump1:0,electric-pump0:0,electric-pump1:0,external-power:0,APU-generator:0,latitude-deg:63.992,longitude-deg:-22.605,altitude-ft:-9999.000,roll-deg:0.000,pitch-deg:0.424,heading-deg:180.018,side-slip-deg:0.000,airspeed-kt:0.000,glideslope:0.000,vertical-speed-fps:0.000,airspeed-indicator_indicated-speed-kt:0.000000,altimeter_indicated-altitude-ft:316.070953,altimeter_pressure-alt-ft:1.193444,attitude-indicator_indicated-pitch-deg:12.000000,attitude-indicator_indicated-roll-deg:40.000000,attitude-indicator_internal-pitch-deg:0.000000,attitude-indicator_internal-roll-deg:0.000000,encoder_indicated-altitude-ft:0.000000,encoder_pressure-alt-ft:0.000000,gps_indicated-altitude-ft:0.000000,gps_indicated-ground-speed-kt:0.000000,gps_indicated-vertical-speed:0.000000,indicated-heading-deg:192.901657,magnetic-compass_indicated-heading-deg:0.000000,slip-skid-ball_indicated-slip-skid:0.000000,turn-indicator_indicated-turn-rate:0.000000,vertical-speed-indicator_indicated-speed-fpm:0.000000,engine_rpm:0.000000 
aileron:0.000000,elevator:0.000000,rudder:0.000000,flaps:0.000000,slats:0.000000,speedbrake:0.000000,throttle0:0.000000,throttle1:0.000000,engine-pump0:0,engine-pump1:0,electric-pump0:0,electric-pump1:0,external-power:0,APU-generator:0,latitude-deg:63.992,longitude-deg:-22.605,altitude-ft:-9999.000,roll-deg:0.000,pitch-deg:0.424,heading-deg:180.018,side-slip-deg:0.000,airspeed-kt:0.000,glideslope:0.000,vertical-speed-fps:0.000,airspeed-indicator_indicated-speed-kt:0.000000,altimeter_indicated-altitude-ft:316.070953,altimeter_pressure-alt-ft:1.193444,attitude-indicator_indicated-pitch-deg:12.000000,attitude-indicator_indicated-roll-deg:40.000000,attitude-indicator_internal-pitch-deg:0.000000,attitude-indicator_internal-roll-deg:0.000000,encoder_indicated-altitude-ft:0.000000,encoder_pressure-alt-ft:0.000000,gps_indicated-altitude-ft:0.000000,gps_indicated-ground-speed-kt:0.000000,gps_indicated-vertical-speed:0.000000,indicated-heading-deg:192.901657,magnetic-compass_indicated-heading-deg:0.000000,slip-skid-ball_indicated-slip-skid:0.000000,turn-indicator_indicated-turn-rate:0.000000,vertical-speed-indicator_indicated-speed-fpm:0.000000,engine_rpm:0.000000 
aileron:0.000000,elevator:0.000000,rudder:0.000000,flaps:0.000000,slats:0.000000,speedbrake:0.000000,throttle0:0.000000,throttle1:0.000000,engine-pump0:0,engine-pump1:0,electric-pump0:0,electric-pump1:0,external-power:0,APU-generator:0,latitude-deg:63.992,longitude-deg:-22.605,altitude-ft:146.229,roll-deg:0.105,pitch-deg:4.954,heading-deg:180.013,side-slip-deg:0.000,airspeed-kt:0.000,glideslope:0.000,vertical-speed-fps:0.000,airspeed-indicator_indicated-speed-kt:0.000000,altimeter_indicated-altitude-ft:316.070953,altimeter_pressure-alt-ft:1.193444,attitude-indicator_indicated-pitch-deg:12.000000,attitude-indicator_indicated-roll-deg:40.000000,attitude-indicator_internal-pitch-deg:0.000000,attitude-indicator_internal-roll-deg:0.000000,encoder_indicated-altitude-ft:0.000000,encoder_pressure-alt-ft:0.000000,gps_indicated-altitude-ft:0.000000,gps_indicated-ground-speed-kt:0.000000,gps_indicated-vertical-speed:0.000000,indicated-heading-deg:192.901657,magnetic-compass_indicated-heading-deg:0.000000,slip-skid-ball_indicated-slip-skid:0.000000,turn-indicator_indicated-turn-rate:0.000000,vertical-speed-indicator_indicated-speed-fpm:0.000000,engine_rpm:0.000000 
aileron:0.000000,elevator:0.000000,rudder:0.000000,flaps:0.000000,slats:0.000000,speedbrake:0.000000,throttle0:0.000000,throttle1:0.000000,engine-pump0:0,engine-pump1:0,electric-pump0:0,electric-pump1:0,external-power:0,APU-generator:0,latitude-deg:63.992,longitude-deg:-22.605,altitude-ft:146.229,roll-deg:0.093,pitch-deg:4.981,heading-deg:180.012,side-slip-deg:89.878,airspeed-kt:3.013,glideslope:-0.020,vertical-speed-fps:-0.000,airspeed-indicator_indicated-speed-kt:0.000000,altimeter_indicated-altitude-ft:465.438293,altimeter_pressure-alt-ft:150.560791,attitude-indicator_indicated-pitch-deg:12.000000,attitude-indicator_indicated-roll-deg:40.000000,attitude-indicator_internal-pitch-deg:0.000000,attitude-indicator_internal-roll-deg:0.000000,encoder_indicated-altitude-ft:150.000137,encoder_pressure-alt-ft:150.000000,gps_indicated-altitude-ft:146.229202,gps_indicated-ground-speed-kt:0.000065,gps_indicated-vertical-speed:-0.003019,indicated-heading-deg:192.901627,magnetic-compass_indicated-heading-deg:344.441040,slip-skid-ball_indicated-slip-skid:-0.010397,turn-indicator_indicated-turn-rate:-0.985256,vertical-speed-indicator_indicated-speed-fpm:3366.031494,engine_rpm:0.000000 
aileron:0.000000,elevator:0.000000,rudder:0.000000,flaps:0.000000,slats:0.000000,speedbrake:0.000000,throttle0:0.000000,throttle1:0.000000,engine-pump0:0,engine-pump1:0,electric-pump0:0,electric-pump1:0,external-power:0,APU-generator:0,latitude-deg:63.992,longitude-deg:-22.605,altitude-ft:146.230,roll-deg:0.095,pitch-deg:4.952,heading-deg:180.013,side-slip-deg:83.882,airspeed-kt:2.734,glideslope:0.059,vertical-speed-fps:0.000,airspeed-indicator_indicated-speed-kt:0.000000,altimeter_indicated-altitude-ft:437.103333,altimeter_pressure-alt-ft:122.225822,attitude-indicator_indicated-pitch-deg:12.000000,attitude-indicator_indicated-roll-deg:40.000000,attitude-indicator_internal-pitch-deg:0.000000,attitude-indicator_internal-roll-deg:0.000000,encoder_indicated-altitude-ft:120.000145,encoder_pressure-alt-ft:120.000000,gps_indicated-altitude-ft:146.229538,gps_indicated-ground-speed-kt:0.000133,gps_indicated-vertical-speed:0.002248,indicated-heading-deg:192.901627,magnetic-compass_indicated-heading-deg:304.605499,slip-skid-ball_indicated-slip-skid:-0.014332,turn-indicator_indicated-turn-rate:-1.582221,vertical-speed-indicator_indicated-speed-fpm:1673.715210,engine_rpm:0.000000 
aileron:0.000000,elevator:0.000000,rudder:0.000000,flaps:0.000000,slats:0.000000,speedbrake:0.000000,throttle0:0.000000,throttle1:0.000000,engine-pump0:0,engine-pump1:0,electric-pump0:0,electric-pump1:0,external-power:0,APU-generator:0,latitude-deg:63.992,longitude-deg:-22.605,altitude-ft:146.230,roll-deg:0.098,pitch-deg:4.951,heading-deg:180.013,side-slip-deg:76.398,airspeed-kt:2.493,glideslope:0.325,vertical-speed-fps:0.000,airspeed-indicator_indicated-speed-kt:0.000000,altimeter_indicated-altitude-ft:408.761993,altimeter_pressure-alt-ft:93.884483,attitude-indicator_indicated-pitch-deg:12.000000,attitude-indicator_indicated-roll-deg:40.000000,attitude-indicator_internal-pitch-deg:0.000000,attitude-indicator_internal-roll-deg:0.000000,encoder_indicated-altitude-ft:90.000145,encoder_pressure-alt-ft:90.000000,gps_indicated-altitude-ft:146.229523,gps_indicated-ground-speed-kt:0.000109,gps_indicated-vertical-speed:-0.000805,indicated-heading-deg:192.901627,magnetic-compass_indicated-heading-deg:252.006516,slip-skid-ball_indicated-slip-skid:-0.016065,turn-indicator_indicated-turn-rate:-1.943920,vertical-speed-indicator_indicated-speed-fpm:-158.824677,engine_rpm:0.000000 
aileron:0.000000,elevator:0.000000,rudder:0.000000,flaps:0.000000,slats:0.000000,speedbrake:0.000000,throttle0:0.000000,throttle1:0.000000,engine-pump0:0,engine-pump1:0,electric-pump0:0,electric-pump1:0,external-power:0,APU-generator:0,latitude-deg:63.992,longitude-deg:-22.605,altitude-ft:146.230,roll-deg:0.098,pitch-deg:4.951,heading-deg:180.013,side-slip-deg:75.154,airspeed-kt:2.461,glideslope:-0.177,vertical-speed-fps:-0.000,airspeed-indicator_indicated-speed-kt:5.814186,altimeter_indicated-altitude-ft:405.942596,altimeter_pressure-alt-ft:91.065086,attitude-indicator_indicated-pitch-deg:12.000000,attitude-indicator_indicated-roll-deg:40.000000,attitude-indicator_internal-pitch-deg:0.000000,attitude-indicator_internal-roll-deg:0.000000,encoder_indicated-altitude-ft:90.000145,encoder_pressure-alt-ft:90.000000,gps_indicated-altitude-ft:146.229507,gps_indicated-ground-speed-kt:0.000105,gps_indicated-vertical-speed:-0.000906,indicated-heading-deg:192.901627,magnetic-compass_indicated-heading-deg:243.755844,slip-skid-ball_indicated-slip-skid:-0.016187,turn-indicator_indicated-turn-rate:-1.984181,vertical-speed-indicator_indicated-speed-fpm:-511.291107,engine_rpm:0.000000 
aileron:0.000000,elevator:0.000000,rudder:0.000000,flaps:0.000000,slats:0.000000,speedbrake:0.000000,throttle0:0.000000,throttle1:0.000000,engine-pump0:0,engine-pump1:0,electric-pump0:0,electric-pump1:0,external-power:0,APU-generator:0,latitude-deg:63.992,longitude-deg:-22.605,altitude-ft:146.230,roll-deg:0.098,pitch-deg:4.951,heading-deg:180.013,side-slip-deg:74.164,airspeed-kt:2.437,glideslope:-0.149,vertical-speed-fps:-0.000,airspeed-indicator_indicated-speed-kt:6.665318,altimeter_indicated-altitude-ft:402.988007,altimeter_pressure-alt-ft:88.110512,attitude-indicator_indicated-pitch-deg:12.000000,attitude-indicator_indicated-roll-deg:40.000000,attitude-indicator_internal-pitch-deg:0.000000,attitude-indicator_internal-roll-deg:0.000000,encoder_indicated-altitude-ft:90.000145,encoder_pressure-alt-ft:90.000000,gps_indicated-altitude-ft:146.229507,gps_indicated-ground-speed-kt:0.000103,gps_indicated-vertical-speed:-0.001174,indicated-heading-deg:192.901627,magnetic-compass_indicated-heading-deg:237.348557,slip-skid-ball_indicated-slip-skid:-0.016293,turn-indicator_indicated-turn-rate:-2.013469,vertical-speed-indicator_indicated-speed-fpm:-697.658875,engine_rpm:0.000000 
aileron:0.000000,elevator:0.000000,rudder:0.000000,flaps:0.000000,slats:0.000000,speedbrake:0.000000,throttle0:0.000000,throttle1:0.000000,engine-pump0:0,engine-pump1:0,electric-pump0:0,electric-pump1:0,external-power:0,APU-generator:0,latitude-deg:63.992,longitude-deg:-22.605,altitude-ft:146.230,roll-deg:0.098,pitch-deg:4.951,heading-deg:180.013,side-slip-deg:73.300,airspeed-kt:2.417,glideslope:-0.037,vertical-speed-fps:-0.000,airspeed-indicator_indicated-speed-kt:6.927021,altimeter_indicated-altitude-ft:400.336670,altimeter_pressure-alt-ft:85.459175,attitude-indicator_indicated-pitch-deg:12.000000,attitude-indicator_indicated-roll-deg:40.000000,attitude-indicator_internal-pitch-deg:0.000000,attitude-indicator_internal-roll-deg:0.000000,encoder_indicated-altitude-ft:90.000145,encoder_pressure-alt-ft:90.000000,gps_indicated-altitude-ft:146.229507,gps_indicated-ground-speed-kt:0.000101,gps_indicated-vertical-speed:-0.000604,indicated-heading-deg:192.901627,magnetic-compass_indicated-heading-deg:231.877701,slip-skid-ball_indicated-slip-skid:-0.016358,turn-indicator_indicated-turn-rate:-2.037246,vertical-speed-indicator_indicated-speed-fpm:-814.226074,engine_rpm:0.000000 
aileron:0.000000,elevator:0.000000,rudder:0.000000,flaps:0.000000,slats:0.000000,speedbrake:0.000000,throttle0:0.000000,throttle1:0.000000,engine-pump0:0,engine-pump1:0,electric-pump0:0,electric-pump1:0,external-power:0,APU-generator:0,latitude-deg:63.992,longitude-deg:-22.605,altitude-ft:146.230,roll-deg:0.099,pitch-deg:4.952,heading-deg:180.013,side-slip-deg:72.421,airspeed-kt:2.398,glideslope:-0.064,vertical-speed-fps:-0.000,airspeed-indicator_indicated-speed-kt:7.051180,altimeter_indicated-altitude-ft:397.566772,altimeter_pressure-alt-ft:82.689262,attitude-indicator_indicated-pitch-deg:12.000000,attitude-indicator_indicated-roll-deg:40.000000,attitude-indicator_internal-pitch-deg:0.000000,attitude-indicator_internal-roll-deg:0.000000,encoder_indicated-altitude-ft:90.000145,encoder_pressure-alt-ft:90.000000,gps_indicated-altitude-ft:146.229507,gps_indicated-ground-speed-kt:0.000099,gps_indicated-vertical-speed:-0.000872,indicated-heading-deg:192.901627,magnetic-compass_indicated-heading-deg:226.437393,slip-skid-ball_indicated-slip-skid:-0.016433,turn-indicator_indicated-turn-rate:-2.059861,vertical-speed-indicator_indicated-speed-fpm:-911.772766,engine_rpm:0.000000 
aileron:0.000000,elevator:0.000000,rudder:0.000000,flaps:0.000000,slats:0.000000,speedbrake:0.000000,throttle0:0.000000,throttle1:0.000000,engine-pump0:0,engine-pump1:0,electric-pump0:0,electric-pump1:0,external-power:0,APU-generator:0,latitude-deg:63.992,longitude-deg:-22.605,altitude-ft:146.230,roll-deg:0.099,pitch-deg:4.952,heading-deg:180.013,side-slip-deg:71.529,airspeed-kt:2.379,glideslope:-0.083,vertical-speed-fps:-0.000,airspeed-indicator_indicated-speed-kt:7.095805,altimeter_indicated-altitude-ft:394.755127,altimeter_pressure-alt-ft:79.877609,attitude-indicator_indicated-pitch-deg:12.000000,attitude-indicator_indicated-roll-deg:40.000000,attitude-indicator_internal-pitch-deg:0.000000,attitude-indicator_internal-roll-deg:0.000000,encoder_indicated-altitude-ft:80.000145,encoder_pressure-alt-ft:80.000000,gps_indicated-altitude-ft:146.229507,gps_indicated-ground-speed-kt:0.000097,gps_indicated-vertical-speed:-0.001073,indicated-heading-deg:192.901627,magnetic-compass_indicated-heading-deg:221.037781,slip-skid-ball_indicated-slip-skid:-0.016506,turn-indicator_indicated-turn-rate:-2.081370,vertical-speed-indicator_indicated-speed-fpm:-992.897461,engine_rpm:0.000000 
aileron:0.000000,elevator:0.000000,rudder:0.000000,flaps:0.000000,slats:0.000000,speedbrake:0.000000,throttle0:0.000000,throttle1:0.000000,engine-pump0:0,engine-pump1:0,electric-pump0:0,electric-pump1:0,external-power:0,APU-generator:0,latitude-deg:63.992,longitude-deg:-22.605,altitude-ft:146.230,roll-deg:0.099,pitch-deg:4.952,heading-deg:180.013,side-slip-deg:70.622,airspeed-kt:2.361,glideslope:-0.193,vertical-speed-fps:-0.000,airspeed-indicator_indicated-speed-kt:7.112659,altimeter_indicated-altitude-ft:391.928741,altimeter_pressure-alt-ft:77.051247,attitude-indicator_indicated-pitch-deg:12.000000,attitude-indicator_indicated-roll-deg:40.000000,attitude-indicator_internal-pitch-deg:0.000000,attitude-indicator_internal-roll-deg:0.000000,encoder_indicated-altitude-ft:80.000145,encoder_pressure-alt-ft:80.000000,gps_indicated-altitude-ft:146.229507,gps_indicated-ground-speed-kt:0.000095,gps_indicated-vertical-speed:-0.001946,indicated-heading-deg:192.901627,magnetic-compass_indicated-heading-deg:215.688766,slip-skid-ball_indicated-slip-skid:-0.016586,turn-indicator_indicated-turn-rate:-2.101829,vertical-speed-indicator_indicated-speed-fpm:-1061.220947,engine_rpm:0.000000 
aileron:0.000000,elevator:0.000000,rudder:0.000000,flaps:0.000000,slats:0.000000,speedbrake:0.000000,throttle0:0.000000,throttle1:0.000000,engine-pump0:0,engine-pump1:0,electric-pump0:0,electric-pump1:0,external-power:0,APU-generator:0,latitude-deg:63.992,longitude-deg:-22.605,altitude-ft:146.230,roll-deg:0.099,pitch-deg:4.952,heading-deg:180.013,side-slip-deg:69.701,airspeed-kt:2.343,glideslope:-0.177,vertical-speed-fps:-0.000,airspeed-indicator_indicated-speed-kt:7.119782,altimeter_indicated-altitude-ft:389.097198,altimeter_pressure-alt-ft:74.219696,attitude-indicator_indicated-pitch-deg:12.000000,attitude-indicator_indicated-roll-deg:40.000000,attitude-indicator_internal-pitch-deg:0.000000,attitude-indicator_internal-roll-deg:0.000000,encoder_indicated-altitude-ft:80.000145,encoder_pressure-alt-ft:80.000000,gps_indicated-altitude-ft:146.229507,gps_indicated-ground-speed-kt:0.000093,gps_indicated-vertical-speed:-0.001946,indicated-heading-deg:192.901627,magnetic-compass_indicated-heading-deg:210.399963,slip-skid-ball_indicated-slip-skid:-0.016652,turn-indicator_indicated-turn-rate:-2.121287,vertical-speed-indicator_indicated-speed-fpm:-1119.633789,engine_rpm:0.000000 
aileron:0.000000,elevator:0.000000,rudder:0.000000,flaps:0.000000,slats:0.000000,speedbrake:0.000000,throttle0:0.000000,throttle1:0.000000,engine-pump0:0,engine-pump1:0,electric-pump0:0,electric-pump1:0,external-power:0,APU-generator:0,latitude-deg:63.992,longitude-deg:-22.605,altitude-ft:146.229,roll-deg:0.099,pitch-deg:4.952,heading-deg:180.013,side-slip-deg:68.767,airspeed-kt:2.326,glideslope:-0.078,vertical-speed-fps:-0.000,airspeed-indicator_indicated-speed-kt:7.123468,altimeter_indicated-altitude-ft:386.263824,altimeter_pressure-alt-ft:71.386307,attitude-indicator_indicated-pitch-deg:12.000000,attitude-indicator_indicated-roll-deg:40.000000,attitude-indicator_internal-pitch-deg:0.000000,attitude-indicator_internal-roll-deg:0.000000,encoder_indicated-altitude-ft:70.000145,encoder_pressure-alt-ft:70.000000,gps_indicated-altitude-ft:146.229492,gps_indicated-ground-speed-kt:0.000091,gps_indicated-vertical-speed:-0.001141,indicated-heading-deg:192.901627,magnetic-compass_indicated-heading-deg:205.180634,slip-skid-ball_indicated-slip-skid:-0.016710,turn-indicator_indicated-turn-rate:-2.139795,vertical-speed-indicator_indicated-speed-fpm:-1170.249512,engine_rpm:0.000000 
aileron:0.000000,elevator:0.000000,rudder:0.000000,flaps:0.000000,slats:0.000000,speedbrake:0.000000,throttle0:0.000000,throttle1:0.000000,engine-pump0:0,engine-pump1:0,electric-pump0:0,electric-pump1:0,external-power:0,APU-generator:0,latitude-deg:63.992,longitude-deg:-22.605,altitude-ft:146.229,roll-deg:0.100,pitch-deg:4.952,heading-deg:180.013,side-slip-deg:67.819,airspeed-kt:2.309,glideslope:-0.183,vertical-speed-fps:-0.000,airspeed-indicator_indicated-speed-kt:7.125931,altimeter_indicated-altitude-ft:383.429779,altimeter_pressure-alt-ft:68.552261,attitude-indicator_indicated-pitch-deg:12.000000,attitude-indicator_indicated-roll-deg:40.000000,attitude-indicator_internal-pitch-deg:0.000000,attitude-indicator_internal-roll-deg:0.000000,encoder_indicated-altitude-ft:70.000145,encoder_pressure-alt-ft:70.000000,gps_indicated-altitude-ft:146.229492,gps_indicated-ground-speed-kt:0.000089,gps_indicated-vertical-speed:-0.002080,indicated-heading-deg:192.901627,magnetic-compass_indicated-heading-deg:200.039749,slip-skid-ball_indicated-slip-skid:-0.016776,turn-indicator_indicated-turn-rate:-2.157398,vertical-speed-indicator_indicated-speed-fpm:-1214.602417,engine_rpm:0.000000 
aileron:0.000000,elevator:0.000000,rudder:0.000000,flaps:0.000000,slats:0.000000,speedbrake:0.000000,throttle0:0.000000,throttle1:0.000000,engine-pump0:0,engine-pump1:0,electric-pump0:0,electric-pump1:0,external-power:0,APU-generator:0,latitude-deg:63.992,longitude-deg:-22.605,altitude-ft:146.229,roll-deg:0.100,pitch-deg:4.952,heading-deg:180.013,side-slip-deg:66.857,airspeed-kt:2.293,glideslope:-0.173,vertical-speed-fps:-0.000,airspeed-indicator_indicated-speed-kt:7.127948,altimeter_indicated-altitude-ft:380.595490,altimeter_pressure-alt-ft:65.717979,attitude-indicator_indicated-pitch-deg:12.000000,attitude-indicator_indicated-roll-deg:40.000000,attitude-indicator_internal-pitch-deg:0.000000,attitude-indicator_internal-roll-deg:0.000000,encoder_indicated-altitude-ft:70.000145,encoder_pressure-alt-ft:70.000000,gps_indicated-altitude-ft:146.229492,gps_indicated-ground-speed-kt:0.000088,gps_indicated-vertical-speed:-0.001912,indicated-heading-deg:192.901627,magnetic-compass_indicated-heading-deg:194.985962,slip-skid-ball_indicated-slip-skid:-0.016835,turn-indicator_indicated-turn-rate:-2.174141,vertical-speed-indicator_indicated-speed-fpm:-1253.823730,engine_rpm:0.000000 
aileron:0.000000,elevator:0.000000,rudder:0.000000,flaps:0.000000,slats:0.000000,speedbrake:0.000000,throttle0:0.000000,throttle1:0.000000,engine-pump0:0,engine-pump1:0,electric-pump0:0,electric-pump1:0,external-power:0,APU-generator:0,latitude-deg:63.992,longitude-deg:-22.605,altitude-ft:146.229,roll-deg:0.100,pitch-deg:4.952,heading-deg:180.013,side-slip-deg:65.882,airspeed-kt:2.278,glideslope:-0.070,vertical-speed-fps:-0.000,airspeed-indicator_indicated-speed-kt:7.129790,altimeter_indicated-altitude-ft:377.761108,altimeter_pressure-alt-ft:62.883595,attitude-indicator_indicated-pitch-deg:12.000000,attitude-indicator_indicated-roll-deg:40.000000,attitude-indicator_internal-pitch-deg:0.000000,attitude-indicator_internal-roll-deg:0.000000,encoder_indicated-altitude-ft:70.000145,encoder_pressure-alt-ft:70.000000,gps_indicated-altitude-ft:146.229492,gps_indicated-ground-speed-kt:0.000086,gps_indicated-vertical-speed:-0.001073,indicated-heading-deg:192.901627,magnetic-compass_indicated-heading-deg:190.027542,slip-skid-ball_indicated-slip-skid:-0.016885,turn-indicator_indicated-turn-rate:-2.190066,vertical-speed-indicator_indicated-speed-fpm:-1288.766602,engine_rpm:0.000000 
aileron:0.000000,elevator:0.000000,rudder:0.000000,flaps:0.000000,slats:0.000000,speedbrake:0.000000,throttle0:0.000000,throttle1:0.000000,engine-pump0:0,engine-pump1:0,electric-pump0:0,electric-pump1:0,external-power:0,APU-generator:0,latitude-deg:63.992,longitude-deg:-22.605,altitude-ft:146.229,roll-deg:0.100,pitch-deg:4.952,heading-deg:180.013,side-slip-deg:64.895,airspeed-kt:2.264,glideslope:-0.081,vertical-speed-fps:-0.000,airspeed-indicator_indicated-speed-kt:7.131555,altimeter_indicated-altitude-ft:374.926666,altimeter_pressure-alt-ft:60.049168,attitude-indicator_indicated-pitch-deg:12.000000,attitude-indicator_indicated-roll-deg:40.000000,attitude-indicator_internal-pitch-deg:0.000000,attitude-indicator_internal-roll-deg:0.000000,encoder_indicated-altitude-ft:60.000141,encoder_pressure-alt-ft:60.000000,gps_indicated-altitude-ft:146.229492,gps_indicated-ground-speed-kt:0.000084,gps_indicated-vertical-speed:-0.001073,indicated-heading-deg:192.901627,magnetic-compass_indicated-heading-deg:185.172424,slip-skid-ball_indicated-slip-skid:-0.016941,turn-indicator_indicated-turn-rate:-2.205212,vertical-speed-indicator_indicated-speed-fpm:-1320.089478,engine_rpm:0.000000 
aileron:0.000000,elevator:0.000000,rudder:0.000000,flaps:0.000000,slats:0.000000,speedbrake:0.000000,throttle0:0.000000,throttle1:0.000000,engine-pump0:0,engine-pump1:0,electric-pump0:0,electric-pump1:0,external-power:0,APU-generator:0,latitude-deg:63.992,longitude-deg:-22.605,altitude-ft:146.229,roll-deg:0.100,pitch-deg:4.952,heading-deg:180.013,side-slip-deg:63.895,airspeed-kt:2.250,glideslope:-0.206,vertical-speed-fps:-0.000,airspeed-indicator_indicated-speed-kt:7.133277,altimeter_indicated-altitude-ft:372.092224,altimeter_pressure-alt-ft:57.214714,attitude-indicator_indicated-pitch-deg:12.000000,attitude-indicator_indicated-roll-deg:40.000000,attitude-indicator_internal-pitch-deg:0.000000,attitude-indicator_internal-roll-deg:0.000000,encoder_indicated-altitude-ft:60.000141,encoder_pressure-alt-ft:60.000000,gps_indicated-altitude-ft:146.229492,gps_indicated-ground-speed-kt:0.000083,gps_indicated-vertical-speed:-0.000839,indicated-heading-deg:192.901627,magnetic-compass_indicated-heading-deg:180.428192,slip-skid-ball_indicated-slip-skid:-0.017000,turn-indicator_indicated-turn-rate:-2.219618,vertical-speed-indicator_indicated-speed-fpm:-1348.311401,engine_rpm:0.000000 
aileron:0.000000,elevator:0.000000,rudder:0.000000,flaps:0.000000,slats:0.000000,speedbrake:0.000000,throttle0:0.000000,throttle1:0.000000,engine-pump0:0,engine-pump1:0,electric-pump0:0,electric-pump1:0,external-power:0,APU-generator:0,latitude-deg:63.992,longitude-deg:-22.605,altitude-ft:146.229,roll-deg:0.101,pitch-deg:4.952,heading-deg:180.013,side-slip-deg:62.883,airspeed-kt:2.237,glideslope:-0.191,vertical-speed-fps:-0.000,airspeed-indicator_indicated-speed-kt:7.134969,altimeter_indicated-altitude-ft:369.257751,altimeter_pressure-alt-ft:54.380245,attitude-indicator_indicated-pitch-deg:12.000000,attitude-indicator_indicated-roll-deg:40.000000,attitude-indicator_internal-pitch-deg:0.000000,attitude-indicator_internal-roll-deg:0.000000,encoder_indicated-altitude-ft:60.000141,encoder_pressure-alt-ft:60.000000,gps_indicated-altitude-ft:146.229477,gps_indicated-ground-speed-kt:0.000081,gps_indicated-vertical-speed:-0.001811,indicated-heading-deg:192.901627,magnetic-compass_indicated-heading-deg:175.802063,slip-skid-ball_indicated-slip-skid:-0.017054,turn-indicator_indicated-turn-rate:-2.233321,vertical-speed-indicator_indicated-speed-fpm:-1373.849243,engine_rpm:0.000000 
aileron:0.000000,elevator:0.000000,rudder:0.000000,flaps:0.000000,slats:0.000000,speedbrake:0.000000,throttle0:0.000000,throttle1:0.000000,engine-pump0:0,engine-pump1:0,electric-pump0:0,electric-pump1:0,external-power:0,APU-generator:0,latitude-deg:63.992,longitude-deg:-22.605,altitude-ft:146.229,roll-deg:0.101,pitch-deg:4.952,heading-deg:180.013,side-slip-deg:61.859,airspeed-kt:2.224,glideslope:-0.049,vertical-speed-fps:-0.000,airspeed-indicator_indicated-speed-kt:7.136634,altimeter_indicated-altitude-ft:366.423248,altimeter_pressure-alt-ft:51.545753,attitude-indicator_indicated-pitch-deg:12.000000,attitude-indicator_indicated-roll-deg:40.000000,attitude-indicator_internal-pitch-deg:0.000000,attitude-indicator_internal-roll-deg:0.000000,encoder_indicated-altitude-ft:50.000141,encoder_pressure-alt-ft:50.000000,gps_indicated-altitude-ft:146.229477,gps_indicated-ground-speed-kt:0.000079,gps_indicated-vertical-speed:-0.001979,indicated-heading-deg:192.901627,magnetic-compass_indicated-heading-deg:171.300827,slip-skid-ball_indicated-slip-skid:-0.017097,turn-indicator_indicated-turn-rate:-2.246353,vertical-speed-indicator_indicated-speed-fpm:-1397.043213,engine_rpm:0.000000 
aileron:0.000000,elevator:0.000000,rudder:0.000000,flaps:0.000000,slats:0.000000,speedbrake:0.000000,throttle0:0.000000,throttle1:0.000000,engine-pump0:0,engine-pump1:0,electric-pump0:0,electric-pump1:0,external-power:0,APU-generator:0,latitude-deg:63.992,longitude-deg:-22.605,altitude-ft:146.229,roll-deg:0.101,pitch-deg:4.952,heading-deg:180.013,side-slip-deg:60.824,airspeed-kt:2.213,glideslope:-0.061,vertical-speed-fps:-0.000,airspeed-indicator_indicated-speed-kt:7.138271,altimeter_indicated-altitude-ft:363.588745,altimeter_pressure-alt-ft:48.711246,attitude-indicator_indicated-pitch-deg:12.000000,attitude-indicator_indicated-roll-deg:40.000000,attitude-indicator_internal-pitch-deg:0.000000,attitude-indicator_internal-roll-deg:0.000000,encoder_indicated-altitude-ft:50.000141,encoder_pressure-alt-ft:50.000000,gps_indicated-altitude-ft:146.229477,gps_indicated-ground-speed-kt:0.000078,gps_indicated-vertical-speed:-0.000872,indicated-heading-deg:192.901627,magnetic-compass_indicated-heading-deg:166.930969,slip-skid-ball_indicated-slip-skid:-0.017142,turn-indicator_indicated-turn-rate:-2.258749,vertical-speed-indicator_indicated-speed-fpm:-1418.175049,engine_rpm:0.000000 
aileron:0.000000,elevator:0.000000,rudder:0.000000,flaps:0.000000,slats:0.000000,speedbrake:0.000000,throttle0:0.000000,throttle1:0.000000,engine-pump0:0,engine-pump1:0,electric-pump0:0,electric-pump1:0,external-power:0,APU-generator:0,latitude-deg:63.992,longitude-deg:-22.605,altitude-ft:146.229,roll-deg:0.101,pitch-deg:4.952,heading-deg:180.013,side-slip-deg:59.778,airspeed-kt:2.202,glideslope:-0.186,vertical-speed-fps:-0.000,airspeed-indicator_indicated-speed-kt:7.218148,altimeter_indicated-altitude-ft:360.754242,altimeter_pressure-alt-ft:45.876724,attitude-indicator_indicated-pitch-deg:12.000000,attitude-indicator_indicated-roll-deg:40.000000,attitude-indicator_internal-pitch-deg:0.000000,attitude-indicator_internal-roll-deg:0.000000,encoder_indicated-altitude-ft:50.000141,encoder_pressure-alt-ft:50.000000,gps_indicated-altitude-ft:146.229477,gps_indicated-ground-speed-kt:0.000076,gps_indicated-vertical-speed:-0.001543,indicated-heading-deg:192.901627,magnetic-compass_indicated-heading-deg:162.698517,slip-skid-ball_indicated-slip-skid:-0.017199,turn-indicator_indicated-turn-rate:-2.270539,vertical-speed-indicator_indicated-speed-fpm:-1437.480713,engine_rpm:0.000000 
aileron:0.000000,elevator:0.000000,rudder:0.000000,flaps:0.000000,slats:0.000000,speedbrake:0.000000,throttle0:0.000000,throttle1:0.000000,engine-pump0:0,engine-pump1:0,electric-pump0:0,electric-pump1:0,external-power:0,APU-generator:0,latitude-deg:63.992,longitude-deg:-22.605,altitude-ft:146.229,roll-deg:0.101,pitch-deg:4.952,heading-deg:180.013,side-slip-deg:58.722,airspeed-kt:2.191,glideslope:-0.167,vertical-speed-fps:-0.000,airspeed-indicator_indicated-speed-kt:7.231042,altimeter_indicated-altitude-ft:357.919708,altimeter_pressure-alt-ft:43.042183,attitude-indicator_indicated-pitch-deg:12.000000,attitude-indicator_indicated-roll-deg:40.000000,attitude-indicator_internal-pitch-deg:0.000000,attitude-indicator_internal-roll-deg:0.000000,encoder_indicated-altitude-ft:50.000141,encoder_pressure-alt-ft:50.000000,gps_indicated-altitude-ft:146.229477,gps_indicated-ground-speed-kt:0.000075,gps_indicated-vertical-speed:-0.001543,indicated-heading-deg:192.901627,magnetic-compass_indicated-heading-deg:158.609146,slip-skid-ball_indicated-slip-skid:-0.017243,turn-indicator_indicated-turn-rate:-2.281753,vertical-speed-indicator_indicated-speed-fpm:-1455.160278,engine_rpm:0.000000 
aileron:0.000000,elevator:0.000000,rudder:0.000000,flaps:0.000000,slats:0.000000,speedbrake:0.000000,throttle0:0.000000,throttle1:0.000000,engine-pump0:0,engine-pump1:0,electric-pump0:0,electric-pump1:0,external-power:0,APU-generator:0,latitude-deg:63.992,longitude-deg:-22.605,altitude-ft:146.229,roll-deg:0.101,pitch-deg:4.953,heading-deg:180.013,side-slip-deg:57.657,airspeed-kt:2.182,glideslope:-0.149,vertical-speed-fps:-0.000,airspeed-indicator_indicated-speed-kt:7.237319,altimeter_indicated-altitude-ft:355.085144,altimeter_pressure-alt-ft:40.207626,attitude-indicator_indicated-pitch-deg:12.000000,attitude-indicator_indicated-roll-deg:40.000000,attitude-indicator_internal-pitch-deg:0.000000,attitude-indicator_internal-roll-deg:0.000000,encoder_indicated-altitude-ft:40.000141,encoder_pressure-alt-ft:40.000000,gps_indicated-altitude-ft:146.229477,gps_indicated-ground-speed-kt:0.000073,gps_indicated-vertical-speed:-0.001308,indicated-heading-deg:192.901627,magnetic-compass_indicated-heading-deg:154.668137,slip-skid-ball_indicated-slip-skid:-0.017284,turn-indicator_indicated-turn-rate:-2.292418,vertical-speed-indicator_indicated-speed-fpm:-1471.384766,engine_rpm:0.000000 
aileron:0.000000,elevator:0.000000,rudder:0.000000,flaps:0.000000,slats:0.000000,speedbrake:0.000000,throttle0:0.000000,throttle1:0.000000,engine-pump0:0,engine-pump1:0,electric-pump0:0,electric-pump1:0,external-power:0,APU-generator:0,latitude-deg:63.992,longitude-deg:-22.605,altitude-ft:146.229,roll-deg:0.102,pitch-deg:4.953,heading-deg:180.013,side-slip-deg:56.582,airspeed-kt:2.173,glideslope:-0.133,vertical-speed-fps:-0.000,airspeed-indicator_indicated-speed-kt:7.243641,altimeter_indicated-altitude-ft:352.250549,altimeter_pressure-alt-ft:37.373055,attitude-indicator_indicated-pitch-deg:12.000000,attitude-indicator_indicated-roll-deg:40.000000,attitude-indicator_internal-pitch-deg:0.000000,attitude-indicator_internal-roll-deg:0.000000,encoder_indicated-altitude-ft:40.000141,encoder_pressure-alt-ft:40.000000,gps_indicated-altitude-ft:146.229462,gps_indicated-ground-speed-kt:0.000072,gps_indicated-vertical-speed:-0.001208,indicated-heading-deg:192.901627,magnetic-compass_indicated-heading-deg:150.880325,slip-skid-ball_indicated-slip-skid:-0.017323,turn-indicator_indicated-turn-rate:-2.302563,vertical-speed-indicator_indicated-speed-fpm:-1486.301514,engine_rpm:0.000000 
aileron:0.000000,elevator:0.000000,rudder:0.000000,flaps:0.000000,slats:0.000000,speedbrake:0.000000,throttle0:0.000000,throttle1:0.000000,engine-pump0:0,engine-pump1:0,electric-pump0:0,electric-pump1:0,external-power:0,APU-generator:0,latitude-deg:63.992,longitude-deg:-22.605,altitude-ft:146.229,roll-deg:0.102,pitch-deg:4.953,heading-deg:180.013,side-slip-deg:55.500,airspeed-kt:2.165,glideslope:0.011,vertical-speed-fps:0.000,airspeed-indicator_indicated-speed-kt:7.250054,altimeter_indicated-altitude-ft:349.415985,altimeter_pressure-alt-ft:34.538464,attitude-indicator_indicated-pitch-deg:12.000000,attitude-indicator_indicated-roll-deg:40.000000,attitude-indicator_internal-pitch-deg:0.000000,attitude-indicator_internal-roll-deg:0.000000,encoder_indicated-altitude-ft:40.000141,encoder_pressure-alt-ft:40.000000,gps_indicated-altitude-ft:146.229462,gps_indicated-ground-speed-kt:0.000070,gps_indicated-vertical-speed:-0.000772,indicated-heading-deg:192.901627,magnetic-compass_indicated-heading-deg:147.250229,slip-skid-ball_indicated-slip-skid:-0.017352,turn-indicator_indicated-turn-rate:-2.312212,vertical-speed-indicator_indicated-speed-fpm:-1500.038574,engine_rpm:0.000000 
aileron:0.000000,elevator:0.000000,rudder:0.000000,flaps:0.000000,slats:0.000000,speedbrake:0.000000,throttle0:0.000000,throttle1:0.000000,engine-pump0:0,engine-pump1:0,electric-pump0:0,electric-pump1:0,external-power:0,APU-generator:0,latitude-deg:63.992,longitude-deg:-22.605,altitude-ft:146.229,roll-deg:0.102,pitch-deg:4.953,heading-deg:180.013,side-slip-deg:54.955,airspeed-kt:2.162,glideslope:0.000,vertical-speed-fps:0.000,airspeed-indicator_indicated-speed-kt:7.253294,altimeter_indicated-altitude-ft:347.998688,altimeter_pressure-alt-ft:33.121162,attitude-indicator_indicated-pitch-deg:12.000000,attitude-indicator_indicated-roll-deg:40.000000,attitude-indicator_internal-pitch-deg:0.000000,attitude-indicator_internal-roll-deg:0.000000,encoder_indicated-altitude-ft:40.000141,encoder_pressure-alt-ft:40.000000,gps_indicated-altitude-ft:146.229462,gps_indicated-ground-speed-kt:0.000070,gps_indicated-vertical-speed:-0.000335,indicated-heading-deg:192.901627,magnetic-compass_indicated-heading-deg:145.495590,slip-skid-ball_indicated-slip-skid:-0.017365,turn-indicator_indicated-turn-rate:-2.316858,vertical-speed-indicator_indicated-speed-fpm:-1506.500122,engine_rpm:0.000000 
aileron:0.000000,elevator:0.000000,rudder:0.000000,flaps:0.000000,slats:0.000000,speedbrake:0.000000,throttle0:0.000000,throttle1:0.000000,engine-pump0:0,engine-pump1:0,electric-pump0:0,electric-pump1:0,external-power:0,APU-generator:0,latitude-deg:63.992,longitude-deg:-22.605,altitude-ft:146.229,roll-deg:0.102,pitch-deg:4.953,heading-deg:180.013,side-slip-deg:51.284,airspeed-kt:2.142,glideslope:-0.117,vertical-speed-fps:-0.000,airspeed-indicator_indicated-speed-kt:5.348875,altimeter_indicated-altitude-ft:337.634216,altimeter_pressure-alt-ft:22.756714,attitude-indicator_indicated-pitch-deg:12.000000,attitude-indicator_indicated-roll-deg:40.000000,attitude-indicator_internal-pitch-deg:0.000000,attitude-indicator_internal-roll-deg:0.000000,encoder_indicated-altitude-ft:20.000143,encoder_pressure-alt-ft:20.000000,gps_indicated-altitude-ft:146.229462,gps_indicated-ground-speed-kt:0.000065,gps_indicated-vertical-speed:-0.000839,indicated-heading-deg:192.901627,magnetic-compass_indicated-heading-deg:134.863785,slip-skid-ball_indicated-slip-skid:-0.017498,turn-indicator_indicated-turn-rate:-2.345027,vertical-speed-indicator_indicated-speed-fpm:-1560.253418,engine_rpm:0.000000 
aileron:0.000000,elevator:0.000000,rudder:0.000000,flaps:0.000000,slats:0.000000,speedbrake:0.000000,throttle0:0.000000,throttle1:0.000000,engine-pump0:0,engine-pump1:0,electric-pump0:0,electric-pump1:0,external-power:0,APU-generator:0,latitude-deg:63.992,longitude-deg:-22.605,altitude-ft:146.229,roll-deg:0.102,pitch-deg:4.953,heading-deg:180.013,side-slip-deg:50.171,airspeed-kt:2.138,glideslope:-0.098,vertical-speed-fps:-0.000,airspeed-indicator_indicated-speed-kt:6.664906,altimeter_indicated-altitude-ft:335.392914,altimeter_pressure-alt-ft:20.515408,attitude-indicator_indicated-pitch-deg:12.000000,attitude-indicator_indicated-roll-deg:40.000000,attitude-indicator_internal-pitch-deg:0.000000,attitude-indicator_internal-roll-deg:0.000000,encoder_indicated-altitude-ft:20.000143,encoder_pressure-alt-ft:20.000000,gps_indicated-altitude-ft:146.229462,gps_indicated-ground-speed-kt:0.000064,gps_indicated-vertical-speed:-0.000704,indicated-heading-deg:192.901627,magnetic-compass_indicated-heading-deg:132.045990,slip-skid-ball_indicated-slip-skid:-0.017531,turn-indicator_indicated-turn-rate:-2.352601,vertical-speed-indicator_indicated-speed-fpm:-1544.965942,engine_rpm:0.000000 
aileron:0.000000,elevator:0.000000,rudder:0.000000,flaps:0.000000,slats:0.000000,speedbrake:0.000000,throttle0:0.000000,throttle1:0.000000,engine-pump0:0,engine-pump1:0,electric-pump0:0,electric-pump1:0,external-power:0,APU-generator:0,latitude-deg:63.992,longitude-deg:-22.605,altitude-ft:146.229,roll-deg:0.102,pitch-deg:4.953,heading-deg:180.013,side-slip-deg:49.055,airspeed-kt:2.135,glideslope:0.072,vertical-speed-fps:0.000,airspeed-indicator_indicated-speed-kt:7.078692,altimeter_indicated-altitude-ft:332.767090,altimeter_pressure-alt-ft:17.889584,attitude-indicator_indicated-pitch-deg:12.000000,attitude-indicator_indicated-roll-deg:40.000000,attitude-indicator_internal-pitch-deg:0.000000,attitude-indicator_internal-roll-deg:0.000000,encoder_indicated-altitude-ft:20.000143,encoder_pressure-alt-ft:20.000000,gps_indicated-altitude-ft:146.229462,gps_indicated-ground-speed-kt:0.000063,gps_indicated-vertical-speed:0.000537,indicated-heading-deg:192.901627,magnetic-compass_indicated-heading-deg:129.403976,slip-skid-ball_indicated-slip-skid:-0.017558,turn-indicator_indicated-turn-rate:-2.359804,vertical-speed-indicator_indicated-speed-fpm:-1545.955688,engine_rpm:0.000000 
aileron:0.000000,elevator:0.000000,rudder:0.000000,flaps:0.000000,slats:0.000000,speedbrake:0.000000,throttle0:0.000000,throttle1:0.000000,engine-pump0:0,engine-pump1:0,electric-pump0:0,electric-pump1:0,external-power:0,APU-generator:0,latitude-deg:63.992,longitude-deg:-22.605,altitude-ft:146.229,roll-deg:0.103,pitch-deg:4.953,heading-deg:180.013,side-slip-deg:47.935,airspeed-kt:2.132,glideslope:0.061,vertical-speed-fps:0.000,airspeed-indicator_indicated-speed-kt:7.222977,altimeter_indicated-altitude-ft:330.005920,altimeter_pressure-alt-ft:15.128401,attitude-indicator_indicated-pitch-deg:12.000000,attitude-indicator_indicated-roll-deg:40.000000,attitude-indicator_internal-pitch-deg:0.000000,attitude-indicator_internal-roll-deg:0.000000,encoder_indicated-altitude-ft:20.000143,encoder_pressure-alt-ft:20.000000,gps_indicated-altitude-ft:146.229462,gps_indicated-ground-speed-kt:0.000061,gps_indicated-vertical-speed:0.000101,indicated-heading-deg:192.901627,magnetic-compass_indicated-heading-deg:126.939514,slip-skid-ball_indicated-slip-skid:-0.017588,turn-indicator_indicated-turn-rate:-2.366656,vertical-speed-indicator_indicated-speed-fpm:-1552.252197,engine_rpm:0.000000 
aileron:0.000000,elevator:0.000000,rudder:0.000000,flaps:0.000000,slats:0.000000,speedbrake:0.000000,throttle0:0.000000,throttle1:0.000000,engine-pump0:0,engine-pump1:0,electric-pump0:0,electric-pump1:0,external-power:0,APU-generator:0,latitude-deg:63.992,longitude-deg:-22.605,altitude-ft:146.229,roll-deg:0.103,pitch-deg:4.953,heading-deg:180.013,side-slip-deg:46.813,airspeed-kt:2.130,glideslope:-0.113,vertical-speed-fps:-0.000,airspeed-indicator_indicated-speed-kt:7.277704,altimeter_indicated-altitude-ft:327.197083,altimeter_pressure-alt-ft:12.319563,attitude-indicator_indicated-pitch-deg:12.000000,attitude-indicator_indicated-roll-deg:40.000000,attitude-indicator_internal-pitch-deg:0.000000,attitude-indicator_internal-roll-deg:0.000000,encoder_indicated-altitude-ft:10.000142,encoder_pressure-alt-ft:10.000000,gps_indicated-altitude-ft:146.229462,gps_indicated-ground-speed-kt:0.000060,gps_indicated-vertical-speed:-0.000772,indicated-heading-deg:192.901627,magnetic-compass_indicated-heading-deg:124.653961,slip-skid-ball_indicated-slip-skid:-0.017624,turn-indicator_indicated-turn-rate:-2.373172,vertical-speed-indicator_indicated-speed-fpm:-1559.980957,engine_rpm:0.000000 
aileron:0.000000,elevator:0.000000,rudder:0.000000,flaps:0.000000,slats:0.000000,speedbrake:0.000000,throttle0:0.000000,throttle1:0.000000,engine-pump0:0,engine-pump1:0,electric-pump0:0,electric-pump1:0,external-power:0,APU-generator:0,latitude-deg:63.992,longitude-deg:-22.605,altitude-ft:146.229,roll-deg:0.103,pitch-deg:4.953,heading-deg:180.013,side-slip-deg:45.502,airspeed-kt:2.129,glideslope:-0.079,vertical-speed-fps:-0.000,airspeed-indicator_indicated-speed-kt:7.208726,altimeter_indicated-altitude-ft:323.843597,altimeter_pressure-alt-ft:8.966081,attitude-indicator_indicated-pitch-deg:12.000000,attitude-indicator_indicated-roll-deg:40.000000,attitude-indicator_internal-pitch-deg:0.000000,attitude-indicator_internal-roll-deg:0.000000,encoder_indicated-altitude-ft:10.000142,encoder_pressure-alt-ft:10.000000,gps_indicated-altitude-ft:146.229462,gps_indicated-ground-speed-kt:0.000059,gps_indicated-vertical-speed:-0.000537,indicated-heading-deg:192.901627,magnetic-compass_indicated-heading-deg:122.214882,slip-skid-ball_indicated-slip-skid:-0.017662,turn-indicator_indicated-turn-rate:-2.380373,vertical-speed-indicator_indicated-speed-fpm:-1571.109009,engine_rpm:0.000000 
aileron:0.000000,elevator:0.000000,rudder:0.000000,flaps:0.000000,slats:0.000000,speedbrake:0.000000,throttle0:0.000000,throttle1:0.000000,engine-pump0:0,engine-pump1:0,electric-pump0:0,electric-pump1:0,external-power:0,APU-generator:0,latitude-deg:63.992,longitude-deg:-22.605,altitude-ft:146.229,roll-deg:0.103,pitch-deg:4.953,heading-deg:180.013,side-slip-deg:44.378,airspeed-kt:2.130,glideslope:0.067,vertical-speed-fps:0.000,airspeed-indicator_indicated-speed-kt:7.280389,altimeter_indicated-altitude-ft:321.047943,altimeter_pressure-alt-ft:6.170434,attitude-indicator_indicated-pitch-deg:12.000000,attitude-indicator_indicated-roll-deg:40.000000,attitude-indicator_internal-pitch-deg:0.000000,attitude-indicator_internal-roll-deg:0.000000,encoder_indicated-altitude-ft:10.000142,encoder_pressure-alt-ft:10.000000,gps_indicated-altitude-ft:146.229462,gps_indicated-ground-speed-kt:0.000058,gps_indicated-vertical-speed:0.001342,indicated-heading-deg:192.901627,magnetic-compass_indicated-heading-deg:120.319839,slip-skid-ball_indicated-slip-skid:-0.017684,turn-indicator_indicated-turn-rate:-2.386220,vertical-speed-indicator_indicated-speed-fpm:-1576.977173,engine_rpm:0.000000 
aileron:0.000000,elevator:0.000000,rudder:0.000000,flaps:0.000000,slats:0.000000,speedbrake:0.000000,throttle0:0.000000,throttle1:0.000000,engine-pump0:0,engine-pump1:0,electric-pump0:0,electric-pump1:0,external-power:0,APU-generator:0,latitude-deg:63.992,longitude-deg:-22.605,altitude-ft:146.229,roll-deg:0.103,pitch-deg:4.953,heading-deg:180.013,side-slip-deg:43.254,airspeed-kt:2.130,glideslope:0.116,vertical-speed-fps:0.000,airspeed-indicator_indicated-speed-kt:7.312892,altimeter_indicated-altitude-ft:318.226929,altimeter_pressure-alt-ft:3.349431,attitude-indicator_indicated-pitch-deg:12.000000,attitude-indicator_indicated-roll-deg:40.000000,attitude-indicator_internal-pitch-deg:0.000000,attitude-indicator_internal-roll-deg:0.000000,encoder_indicated-altitude-ft:10.000142,encoder_pressure-alt-ft:10.000000,gps_indicated-altitude-ft:146.229462,gps_indicated-ground-speed-kt:0.000056,gps_indicated-vertical-speed:0.000335,indicated-heading-deg:192.901627,magnetic-compass_indicated-heading-deg:118.605530,slip-skid-ball_indicated-slip-skid:-0.017708,turn-indicator_indicated-turn-rate:-2.391780,vertical-speed-indicator_indicated-speed-fpm:-1583.419800,engine_rpm:0.000000 
aileron:0.000000,elevator:0.000000,rudder:0.000000,flaps:0.000000,slats:0.000000,speedbrake:0.000000,throttle0:0.000000,throttle1:0.000000,engine-pump0:0,engine-pump1:0,electric-pump0:0,electric-pump1:0,external-power:0,APU-generator:0,latitude-deg:63.992,longitude-deg:-22.605,altitude-ft:146.229,roll-deg:0.103,pitch-deg:4.953,heading-deg:180.013,side-slip-deg:42.132,airspeed-kt:2.132,glideslope:-0.089,vertical-speed-fps:-0.000,airspeed-indicator_indicated-speed-kt:7.329198,altimeter_indicated-altitude-ft:315.397003,altimeter_pressure-alt-ft:0.519491,attitude-indicator_indicated-pitch-deg:12.000000,attitude-indicator_indicated-roll-deg:40.000000,attitude-indicator_internal-pitch-deg:0.000000,attitude-indicator_internal-roll-deg:0.000000,encoder_indicated-altitude-ft:0.000142,encoder_pressure-alt-ft:0.000000,gps_indicated-altitude-ft:146.229462,gps_indicated-ground-speed-kt:0.000055,gps_indicated-vertical-speed:-0.000067,indicated-heading-deg:192.901627,magnetic-compass_indicated-heading-deg:117.071785,slip-skid-ball_indicated-slip-skid:-0.017746,turn-indicator_indicated-turn-rate:-2.397069,vertical-speed-indicator_indicated-speed-fpm:-1589.755859,engine_rpm:0.000000 
aileron:0.000000,elevator:0.000000,rudder:0.000000,flaps:0.000000,slats:0.000000,speedbrake:0.000000,throttle0:0.000000,throttle1:0.000000,engine-pump0:0,engine-pump1:0,electric-pump0:0,electric-pump1:0,external-power:0,APU-generator:0,latitude-deg:63.992,longitude-deg:-22.605,altitude-ft:146.229,roll-deg:0.103,pitch-deg:4.953,heading-deg:180.013,side-slip-deg:41.012,airspeed-kt:2.135,glideslope:-0.047,vertical-speed-fps:-0.000,airspeed-indicator_indicated-speed-kt:7.339867,altimeter_indicated-altitude-ft:312.672333,altimeter_pressure-alt-ft:-2.205174,attitude-indicator_indicated-pitch-deg:12.000000,attitude-indicator_indicated-roll-deg:40.000000,attitude-indicator_internal-pitch-deg:0.000000,attitude-indicator_internal-roll-deg:0.000000,encoder_indicated-altitude-ft:0.000142,encoder_pressure-alt-ft:0.000000,gps_indicated-altitude-ft:146.229462,gps_indicated-ground-speed-kt:0.000054,gps_indicated-vertical-speed:-0.000470,indicated-heading-deg:192.901627,magnetic-compass_indicated-heading-deg:115.718056,slip-skid-ball_indicated-slip-skid:-0.017772,turn-indicator_indicated-turn-rate:-2.402099,vertical-speed-indicator_indicated-speed-fpm:-1595.770142,engine_rpm:0.000000 
aileron:0.000000,elevator:0.000000,rudder:0.000000,flaps:0.000000,slats:0.000000,speedbrake:0.000000,throttle0:0.000000,throttle1:0.000000,engine-pump0:0,engine-pump1:0,electric-pump0:0,electric-pump1:0,external-power:0,APU-generator:0,latitude-deg:63.992,longitude-deg:-22.605,altitude-ft:146.229,roll-deg:0.103,pitch-deg:4.953,heading-deg:180.013,side-slip-deg:39.895,airspeed-kt:2.138,glideslope:-0.005,vertical-speed-fps:-0.000,airspeed-indicator_indicated-speed-kt:7.348613,altimeter_indicated-altitude-ft:309.970947,altimeter_pressure-alt-ft:-4.906562,attitude-indicator_indicated-pitch-deg:12.000000,attitude-indicator_indicated-roll-deg:40.000000,attitude-indicator_internal-pitch-deg:0.000000,attitude-indicator_internal-roll-deg:0.000000,encoder_indicated-altitude-ft:0.000142,encoder_pressure-alt-ft:0.000000,gps_indicated-altitude-ft:146.229462,gps_indicated-ground-speed-kt:0.000053,gps_indicated-vertical-speed:-0.000201,indicated-heading-deg:192.901627,magnetic-compass_indicated-heading-deg:114.543465,slip-skid-ball_indicated-slip-skid:-0.017795,turn-indicator_indicated-turn-rate:-2.406883,vertical-speed-indicator_indicated-speed-fpm:-1601.408813,engine_rpm:0.000000 
aileron:0.000000,elevator:0.000000,rudder:0.000000,flaps:0.000000,slats:0.000000,speedbrake:0.000000,throttle0:0.000000,throttle1:0.000000,engine-pump0:0,engine-pump1:0,electric-pump0:0,electric-pump1:0,external-power:0,APU-generator:0,latitude-deg:63.992,longitude-deg:-22.605,altitude-ft:146.229,roll-deg:0.103,pitch-deg:4.953,heading-deg:180.013,side-slip-deg:38.782,airspeed-kt:2.142,glideslope:0.032,vertical-speed-fps:0.000,airspeed-indicator_indicated-speed-kt:7.356738,altimeter_indicated-altitude-ft:307.269165,altimeter_pressure-alt-ft:-7.608337,attitude-indicator_indicated-pitch-deg:12.000000,attitude-indicator_indicated-roll-deg:40.000000,attitude-indicator_internal-pitch-deg:0.000000,attitude-indicator_internal-roll-deg:0.000000,encoder_indicated-altitude-ft:-9.999858,encoder_pressure-alt-ft:-10.000000,gps_indicated-altitude-ft:146.229462,gps_indicated-ground-speed-kt:0.000052,gps_indicated-vertical-speed:-0.000101,indicated-heading-deg:192.901627,magnetic-compass_indicated-heading-deg:113.546783,slip-skid-ball_indicated-slip-skid:-0.017817,turn-indicator_indicated-turn-rate:-2.411434,vertical-speed-indicator_indicated-speed-fpm:-1606.672363,engine_rpm:0.000000 
aileron:0.000000,elevator:0.000000,rudder:0.000000,flaps:0.000000,slats:0.000000,speedbrake:0.000000,throttle0:0.000000,throttle1:0.000000,engine-pump0:0,engine-pump1:0,electric-pump0:0,electric-pump1:0,external-power:0,APU-generator:0,latitude-deg:63.992,longitude-deg:-22.605,altitude-ft:146.229,roll-deg:0.103,pitch-deg:4.953,heading-deg:180.013,side-slip-deg:37.673,airspeed-kt:2.147,glideslope:0.066,vertical-speed-fps:0.000,airspeed-indicator_indicated-speed-kt:7.364701,altimeter_indicated-altitude-ft:304.567261,altimeter_pressure-alt-ft:-10.310258,attitude-indicator_indicated-pitch-deg:12.000000,attitude-indicator_indicated-roll-deg:40.000000,attitude-indicator_internal-pitch-deg:0.000000,attitude-indicator_internal-roll-deg:0.000000,encoder_indicated-altitude-ft:-9.999858,encoder_pressure-alt-ft:-10.000000,gps_indicated-altitude-ft:146.229462,gps_indicated-ground-speed-kt:0.000051,gps_indicated-vertical-speed:-0.000034,indicated-heading-deg:192.901627,magnetic-compass_indicated-heading-deg:112.726471,slip-skid-ball_indicated-slip-skid:-0.017838,turn-indicator_indicated-turn-rate:-2.415762,vertical-speed-indicator_indicated-speed-fpm:-1611.578857,engine_rpm:0.000000 
aileron:0.000000,elevator:0.000000,rudder:0.000000,flaps:0.000000,slats:0.000000,speedbrake:0.000000,throttle0:0.000000,throttle1:0.000000,engine-pump0:0,engine-pump1:0,electric-pump0:0,electric-pump1:0,external-power:0,APU-generator:0,latitude-deg:63.992,longitude-deg:-22.605,altitude-ft:146.229,roll-deg:0.104,pitch-deg:4.953,heading-deg:180.013,side-slip-deg:36.570,airspeed-kt:2.153,glideslope:0.098,vertical-speed-fps:0.000,airspeed-indicator_indicated-speed-kt:7.372663,altimeter_indicated-altitude-ft:301.865265,altimeter_pressure-alt-ft:-13.012240,attitude-indicator_indicated-pitch-deg:12.000000,attitude-indicator_indicated-roll-deg:40.000000,attitude-indicator_internal-pitch-deg:0.000000,attitude-indicator_internal-roll-deg:0.000000,encoder_indicated-altitude-ft:-9.999858,encoder_pressure-alt-ft:-10.000000,gps_indicated-altitude-ft:146.229462,gps_indicated-ground-speed-kt:0.000050,gps_indicated-vertical-speed:0.000134,indicated-heading-deg:192.901627,magnetic-compass_indicated-heading-deg:112.080643,slip-skid-ball_indicated-slip-skid:-0.017859,turn-indicator_indicated-turn-rate:-2.419879,vertical-speed-indicator_indicated-speed-fpm:-1616.151001,engine_rpm:0.000000 
aileron:0.000000,elevator:0.000000,rudder:0.000000,flaps:0.000000,slats:0.000000,speedbrake:0.000000,throttle0:0.000000,throttle1:0.000000,engine-pump0:0,engine-pump1:0,electric-pump0:0,electric-pump1:0,external-power:0,APU-generator:0,latitude-deg:63.992,longitude-deg:-22.605,altitude-ft:146.229,roll-deg:0.104,pitch-deg:4.953,heading-deg:180.013,side-slip-deg:35.474,airspeed-kt:2.159,glideslope:0.130,vertical-speed-fps:0.000,airspeed-indicator_indicated-speed-kt:7.380680,altimeter_indicated-altitude-ft:299.163269,altimeter_pressure-alt-ft:-15.714254,attitude-indicator_indicated-pitch-deg:12.000000,attitude-indicator_indicated-roll-deg:40.000000,attitude-indicator_internal-pitch-deg:0.000000,attitude-indicator_internal-roll-deg:0.000000,encoder_indicated-altitude-ft:-9.999858,encoder_pressure-alt-ft:-10.000000,gps_indicated-altitude-ft:146.229462,gps_indicated-ground-speed-kt:0.000049,gps_indicated-vertical-speed:0.000201,indicated-heading-deg:192.901627,magnetic-compass_indicated-heading-deg:111.607140,slip-skid-ball_indicated-slip-skid:-0.017879,turn-indicator_indicated-turn-rate:-2.423794,vertical-speed-indicator_indicated-speed-fpm:-1620.411743,engine_rpm:0.000000 
aileron:0.000000,elevator:0.000000,rudder:0.000000,flaps:0.000000,slats:0.000000,speedbrake:0.000000,throttle0:0.000000,throttle1:0.000000,engine-pump0:0,engine-pump1:0,electric-pump0:0,electric-pump1:0,external-power:0,APU-generator:0,latitude-deg:63.992,longitude-deg:-22.605,altitude-ft:146.229,roll-deg:0.104,pitch-deg:4.953,heading-deg:180.013,side-slip-deg:34.384,airspeed-kt:2.167,glideslope:0.160,vertical-speed-fps:0.000,airspeed-indicator_indicated-speed-kt:7.388772,altimeter_indicated-altitude-ft:296.461212,altimeter_pressure-alt-ft:-18.416290,attitude-indicator_indicated-pitch-deg:12.000000,attitude-indicator_indicated-roll-deg:40.000000,attitude-indicator_internal-pitch-deg:0.000000,attitude-indicator_internal-roll-deg:0.000000,encoder_indicated-altitude-ft:-19.999857,encoder_pressure-alt-ft:-20.000000,gps_indicated-altitude-ft:146.229462,gps_indicated-ground-speed-kt:0.000048,gps_indicated-vertical-speed:0.000302,indicated-heading-deg:192.901627,magnetic-compass_indicated-heading-deg:111.303474,slip-skid-ball_indicated-slip-skid:-0.017899,turn-indicator_indicated-turn-rate:-2.427519,vertical-speed-indicator_indicated-speed-fpm:-1624.383057,engine_rpm:0.000000 
aileron:0.000000,elevator:0.000000,rudder:0.000000,flaps:0.000000,slats:0.000000,speedbrake:0.000000,throttle0:0.000000,throttle1:0.000000,engine-pump0:0,engine-pump1:0,electric-pump0:0,electric-pump1:0,external-power:0,APU-generator:0,latitude-deg:63.992,longitude-deg:-22.605,altitude-ft:146.229,roll-deg:0.104,pitch-deg:4.953,heading-deg:180.013,side-slip-deg:33.302,airspeed-kt:2.175,glideslope:0.191,vertical-speed-fps:0.000,airspeed-indicator_indicated-speed-kt:7.396946,altimeter_indicated-altitude-ft:293.759155,altimeter_pressure-alt-ft:-21.118341,attitude-indicator_indicated-pitch-deg:12.000000,attitude-indicator_indicated-roll-deg:40.000000,attitude-indicator_internal-pitch-deg:0.000000,attitude-indicator_internal-roll-deg:0.000000,encoder_indicated-altitude-ft:-19.999857,encoder_pressure-alt-ft:-20.000000,gps_indicated-altitude-ft:146.229462,gps_indicated-ground-speed-kt:0.000047,gps_indicated-vertical-speed:0.000403,indicated-heading-deg:192.901627,magnetic-compass_indicated-heading-deg:111.166878,slip-skid-ball_indicated-slip-skid:-0.017918,turn-indicator_indicated-turn-rate:-2.431061,vertical-speed-indicator_indicated-speed-fpm:-1628.085205,engine_rpm:0.000000 
aileron:0.000000,elevator:0.000000,rudder:0.000000,flaps:0.000000,slats:0.000000,speedbrake:0.000000,throttle0:0.000000,throttle1:0.000000,engine-pump0:0,engine-pump1:0,electric-pump0:0,electric-pump1:0,external-power:0,APU-generator:0,latitude-deg:63.992,longitude-deg:-22.605,altitude-ft:146.229,roll-deg:0.104,pitch-deg:4.953,heading-deg:180.013,side-slip-deg:32.228,airspeed-kt:2.184,glideslope:0.222,vertical-speed-fps:0.000,airspeed-indicator_indicated-speed-kt:7.405204,altimeter_indicated-altitude-ft:291.057098,altimeter_pressure-alt-ft:-23.820412,attitude-indicator_indicated-pitch-deg:12.000000,attitude-indicator_indicated-roll-deg:40.000000,attitude-indicator_internal-pitch-deg:0.000000,attitude-indicator_internal-roll-deg:0.000000,encoder_indicated-altitude-ft:-19.999857,encoder_pressure-alt-ft:-20.000000,gps_indicated-altitude-ft:146.229462,gps_indicated-ground-speed-kt:0.000046,gps_indicated-vertical-speed:0.000503,indicated-heading-deg:192.901627,magnetic-compass_indicated-heading-deg:111.194328,slip-skid-ball_indicated-slip-skid:-0.017936,turn-indicator_indicated-turn-rate:-2.434430,vertical-speed-indicator_indicated-speed-fpm:-1631.536987,engine_rpm:0.000000 
aileron:0.000000,elevator:0.000000,rudder:0.000000,flaps:0.000000,slats:0.000000,speedbrake:0.000000,throttle0:0.000000,throttle1:0.000000,engine-pump0:0,engine-pump1:0,electric-pump0:0,electric-pump1:0,external-power:0,APU-generator:0,latitude-deg:63.992,longitude-deg:-22.605,altitude-ft:146.229,roll-deg:0.104,pitch-deg:4.953,heading-deg:180.013,side-slip-deg:31.164,airspeed-kt:2.194,glideslope:0.254,vertical-speed-fps:0.000,airspeed-indicator_indicated-speed-kt:7.413547,altimeter_indicated-altitude-ft:288.355011,altimeter_pressure-alt-ft:-26.522497,attitude-indicator_indicated-pitch-deg:12.000000,attitude-indicator_indicated-roll-deg:40.000000,attitude-indicator_internal-pitch-deg:0.000000,attitude-indicator_internal-roll-deg:0.000000,encoder_indicated-altitude-ft:-19.999857,encoder_pressure-alt-ft:-20.000000,gps_indicated-altitude-ft:146.229462,gps_indicated-ground-speed-kt:0.000045,gps_indicated-vertical-speed:0.000537,indicated-heading-deg:192.901627,magnetic-compass_indicated-heading-deg:111.382500,slip-skid-ball_indicated-slip-skid:-0.017954,turn-indicator_indicated-turn-rate:-2.437634,vertical-speed-indicator_indicated-speed-fpm:-1634.756104,engine_rpm:0.000000 
