AILERON,ELEVATOR,RUDDER,FLAPS,SLATS,SPEEDBRAKE,THROTTLE0,THROTTLE1,ENGINE-PUMP0,ENGINE-PUMP1,ELECTRIC-PUMP0,ELECTRIC-PUMP1,EXTERNAL-POWER,APU-GENERATOR,LATITUDE-DEG,LONGITUDE-DEG,ALTITUDE-FT,ROLL-DEG,PITCH-DEG,HEADING-DEG,SIDE-SLIP-DEG,AIRSPEED-KT,GLIDESLOPE,VERTICAL-SPEED-FPS,AIRSPEED-INDICATOR_INDICATED-SPEED-KT,ALTIMETER_INDICATED-ALTITUDE-FT,ALTIMETER_PRESSURE-ALT-FT,ATTITUDE-INDICATOR_INDICATED-PITCH-DEG,ATTITUDE-INDICATOR_INDICATED-ROLL-DEG,ATTITUDE-INDICATOR_INTERNAL-PITCH-DEG,ATTITUDE-INDICATOR_INTERNAL-ROLL-DEG,ENCODER_INDICATED-ALTITUDE-FT,ENCODER_PRESSURE-ALT-FT,GPS_INDICATED-ALTITUDE-FT,GPS_INDICATED-GROUND-SPEED-KT,GPS_INDICATED-VERTICAL-SPEED,INDICATED-HEADING-DEG,MAGNETIC-COMPASS_INDICATED-HEADING-DEG,SLIP-SKID-BALL_INDICATED-SLIP-SKID,TURN-INDICATOR_INDICATED-TURN-RATE,VERTICAL-SPEED-INDICATOR_INDICATED-SPEED-FPM,ENGINE_RPM,
aileron:0.000000,elevator:0.000000,rudder:0.000000,flaps:0.000000,slats:0.000000,speedbrake:0.000000,throttle0:0.000000,throttle1:0.000000,engine-pump0:0,engine-pump1:0,electric-pump0:0,electric-pump1:0,external-power:0,APU-generator:0,latitude-deg:63.992,longitude-deg:-22.605,altitude-ft:-9999.000,roll-deg:0.000,pitch-deg:0.424,heading-deg:180.018,side-slip-deg:0.000,airspeed-kt:0.000,glideslope:0.000,vertical-speed-fps:0.000,airspeed-indicator_indicated-speed-kt:0.000000,altimeter_indicated-altitude-ft:0.000000,altimeter_pressure-alt-ft:0.000000,attitude-indicator_indicated-pitch-deg:0.000000,attitude-indicator_indicated-roll-deg:0.000000,attitude-indicator_internal-pitch-deg:0.000000,attitude-indicator_internal-roll-deg:0.000000,encoder_indicated-altitude-ft:0.000000,encoder_pressure-alt-ft:0.000000,gps_indicated-altitude-ft:0.000000,gps_indicated-ground-speed-kt:0.000000,gps_indicated-vertical-speed:0.000000,indicated-heading-deg:0.000000,magnetic-compass_indicated-heading-deg:0.000000,slip-skid-ball_indicated-slip-skid:0.000000,turn-indicator_indicated-turn-rate:0.000000,vertical-speed-indicator_indicated-speed-fpm:0.000000,engine_rpm:0.000000 

aileron:1.000000,elevator:0.000000,rudder:0.000000,flaps:0.000000,slats:0.000000,speedbrake:0.000000,throttle0:0.000000,throttle1:0.000000,engine-pump0:0,engine-pump1:0,electric-pump0:0,electric-pump1:0,external-power:0,APU-generator:0,latitude-deg:63.992,longitude-deg:-22.605,altitude-ft:-9999.000,roll-deg:0.000,pitch-deg:0.424,heading-deg:180.018,side-slip-deg:0.000,airspeed-kt:0.000,glideslope:0.000,vertical-speed-fps:0.000,airspeed-indicator_indicated-speed-kt:0.000000,altimeter_indicated-altitude-ft:316.070953,altimeter_pressure-alt-ft:1.193444,attitude-indicator_indicated-pitch-deg:12.000000,attitude-indicator_indicated-roll-deg:40.000000,attitude-indicator_internal-pitch-deg:0.000000,attitude-indicator_internal-roll-deg:0.000000,encoder_indicated-altitude-ft:0.000000,encoder_pressure-alt-ft:0.000000,gps_indicated-altitude-ft:0.000000,gps_indicated-ground-speed-kt:0.000000,gps_indicated-vertical-speed:0.000000,indicated-heading-deg:192.901657,magnetic-compass_indicated-heading-deg:0.000000,slip-skid-ball_indicated-slip-skid:0.000000,turn-indicator_indicated-turn-rate:0.000000,vertical-speed-indicator_indicated-speed-fpm:0.000000,engine_rpm:0.000000 
aileron:1.000000,elevator:0.000000,rudder:0.000000,flaps:0.000000,slats:0.000000,speedbrake:0.000000,throttle0:0.000000,throttle1:0.000000,engine-pump0:0,engine-pump1:0,electric-pump0:0,electric-pump1:0,external-power:0,APU-generator:0,latitude-deg:63.992,longitude-deg:-22.605,altitude-ft:-9999.000,roll-deg:0.000,pitch-deg:0.424,heading-deg:180.018,side-slip-deg:0.000,airspeed-kt:0.000,glideslope:0.000,vertical-speed-fps:0.000,airspeed-indicator_indicated-speed-kt:0.000000,altimeter_indicated-altitude-ft:316.070953,altimeter_pressure-alt-ft:1.193444,attitude-indicator_indicated-pitch-deg:12.000000,attitude-indicator_indicated-roll-deg:40.000000,attitude-indicator_internal-pitch-deg:0.000000,attitude-indicator_internal-roll-deg:0.000000,encoder_indicated-altitude-ft:0.000000,encoder_pressure-alt-ft:0.000000,gps_indicated-altitude-ft:0.000000,gps_indicated-ground-speed-kt:0.000000,gps_indicated-vertical-speed:0.000000,indicated-heading-deg:192.901657,magnetic-compass_indicated-heading-deg:0.000000,slip-skid-ball_indicated-slip-skid:0.000000,turn-indicator_indicated-turn-rate:0.000000,vertical-speed-indicator_indicated-speed-fpm:0.000000,engine_rpm:0.000000 
aileron:1.000000,elevator:0.000000,rudder:0.000000,flaps:0.000000,slats:0.000000,speedbrake:0.000000,throttle0:0.000000,throttle1:0.000000,engine-pump0:0,engine-pump1:0,electric-pump0:0,electric-pump1:0,external-power:0,APU-generator:0,latitude-deg:63.992,longitude-deg:-22.605,altitude-ft:-9999.000,roll-deg:0.000,pitch-deg:0.424,heading-deg:180.018,side-slip-deg:0.000,airspeed-kt:0.000,glideslope:0.000,vertical-speed-fps:0.000,airspeed-indicator_indicated-speed-kt:0.000000,altimeter_indicated-altitude-ft:316.070953,altimeter_pressure-alt-ft:1.193444,attitude-indicator_indicated-pitch-deg:12.000000,attitude-indicator_indicated-roll-deg:40.000000,attitude-indicator_internal-pitch-deg:0.000000,attitude-indicator_internal-roll-deg:0.000000,encoder_indicated-altitude-ft:0.000000,encoder_pressure-alt-ft:0.000000,gps_indicated-altitude-ft:0.000000,gps_indicated-ground-speed-kt:0.000000,gps_indicated-vertical-speed:0.000000,indicated-heading-deg:192.901657,magnetic-compass_indicated-heading-deg:0.000000,slip-skid-ball_indicated-slip-skid:0.000000,turn-indicator_indicated-turn-rate:0.000000,vertical-speed-indicator_indicated-speed-fpm:0.000000,engine_rpm:0.000000 
aileron:1.000000,elevator:0.000000,rudder:0.000000,flaps:0.000000,slats:0.000000,speedbrake:0.000000,throttle0:0.000000,throttle1:0.000000,engine-pump0:0,engine-pump1:0,electric-pump0:0,electric-pump1:0,external-power:0,APU-generator:0,latitude-deg:63.992,longitude-deg:-22.605,altitude-ft:146.229,roll-deg:0.105,pitch-deg:4.954,heading-deg:180.013,side-slip-deg:0.000,airspeed-kt:0.000,glideslope:0.000,vertical-speed-fps:0.000,airspeed-indicator_indicated-speed-kt:0.000000,altimeter_indicated-altitude-ft:316.070953,altimeter_pressure-alt-ft:1.193444,attitude-indicator_indicated-pitch-deg:12.000000,attitude-indicator_indicated-roll-deg:40.000000,attitude-indicator_internal-pitch-deg:0.000000,attitude-indicator_internal-roll-deg:0.000000,encoder_indicated-altitude-ft:0.000000,encoder_pressure-alt-ft:0.000000,gps_indicated-altitude-ft:0.000000,gps_indicated-ground-speed-kt:0.000000,gps_indicated-vertical-speed:0.000000,indicated-heading-deg:192.901657,magnetic-compass_indicated-heading-deg:0.000000,slip-skid-ball_indicated-slip-skid:0.000000,turn-indicator_indicated-turn-rate:0.000000,vertical-speed-indicator_indicated-speed-fpm:0.000000,engine_rpm:0.000000 
aileron:1.000000,elevator:0.000000,rudder:0.000000,flaps:0.000000,slats:0.000000,speedbrake:0.000000,throttle0:0.000000,throttle1:0.000000,engine-pump0:0,engine-pump1:0,electric-pump0:0,electric-pump1:0,external-power:0,APU-generator:0,latitude-deg:63.992,longitude-deg:-22.605,altitude-ft:146.229,roll-deg:0.098,pitch-deg:4.981,heading-deg:180.013,side-slip-deg:89.874,airspeed-kt:3.013,glideslope:-0.018,vertical-speed-fps:-0.000,airspeed-indicator_indicated-speed-kt:0.000000,altimeter_indicated-altitude-ft:465.438293,altimeter_pressure-alt-ft:150.560791,attitude-indicator_indicated-pitch-deg:12.000000,attitude-indicator_indicated-roll-deg:40.000000,attitude-indicator_internal-pitch-deg:0.000000,attitude-indicator_internal-roll-deg:0.000000,encoder_indicated-altitude-ft:150.000137,encoder_pressure-alt-ft:150.000000,gps_indicated-altitude-ft:146.229202,gps_indicated-ground-speed-kt:0.000000,gps_indicated-vertical-speed:-0.002382,indicated-heading-deg:192.901627,magnetic-compass_indicated-heading-deg:344.441925,slip-skid-ball_indicated-slip-skid:-0.011221,turn-indicator_indicated-turn-rate:-0.985256,vertical-speed-indicator_indicated-speed-fpm:3366.031494,engine_rpm:0.000000 
aileron:1.000000,elevator:0.000000,rudder:0.000000,flaps:0.000000,slats:0.000000,speedbrake:0.000000,throttle0:0.000000,throttle1:0.000000,engine-pump0:0,engine-pump1:0,electric-pump0:0,electric-pump1:0,external-power:0,APU-generator:0,latitude-deg:63.992,longitude-deg:-22.605,altitude-ft:146.230,roll-deg:0.100,pitch-deg:4.952,heading-deg:180.013,side-slip-deg:83.882,airspeed-kt:2.734,glideslope:0.092,vertical-speed-fps:0.000,airspeed-indicator_indicated-speed-kt:0.000000,altimeter_indicated-altitude-ft:437.103333,altimeter_pressure-alt-ft:122.225822,attitude-indicator_indicated-pitch-deg:12.000000,attitude-indicator_indicated-roll-deg:40.000000,attitude-indicator_internal-pitch-deg:0.000000,attitude-indicator_internal-roll-deg:0.000000,encoder_indicated-altitude-ft:120.000145,encoder_pressure-alt-ft:120.000000,gps_indicated-altitude-ft:146.229538,gps_indicated-ground-speed-kt:0.000080,gps_indicated-vertical-speed:0.004227,indicated-heading-deg:192.901627,magnetic-compass_indicated-heading-deg:304.610138,slip-skid-ball_indicated-slip-skid:-0.015141,turn-indicator_indicated-turn-rate:-1.582221,vertical-speed-indicator_indicated-speed-fpm:1673.715210,engine_rpm:0.000000 
aileron:1.000000,elevator:0.000000,rudder:0.000000,flaps:0.000000,slats:0.000000,speedbrake:0.000000,throttle0:0.000000,throttle1:0.000000,engine-pump0:0,engine-pump1:0,electric-pump0:0,electric-pump1:0,external-power:0,APU-generator:0,latitude-deg:63.992,longitude-deg:-22.605,altitude-ft:146.230,roll-deg:0.102,pitch-deg:4.951,heading-deg:180.013,side-slip-deg:76.398,airspeed-kt:2.493,glideslope:0.192,vertical-speed-fps:0.000,airspeed-indicator_indicated-speed-kt:0.000000,altimeter_indicated-altitude-ft:408.761993,altimeter_pressure-alt-ft:93.884476,attitude-indicator_indicated-pitch-deg:12.000000,attitude-indicator_indicated-roll-deg:40.000000,attitude-indicator_internal-pitch-deg:0.000000,attitude-indicator_internal-roll-deg:0.000000,encoder_indicated-altitude-ft:90.000145,encoder_pressure-alt-ft:90.000000,gps_indicated-altitude-ft:146.229523,gps_indicated-ground-speed-kt:0.000066,gps_indicated-vertical-speed:0.000805,indicated-heading-deg:192.901627,magnetic-compass_indicated-heading-deg:252.016312,slip-skid-ball_indicated-slip-skid:-0.016808,turn-indicator_indicated-turn-rate:-1.943920,vertical-speed-indicator_indicated-speed-fpm:-158.824844,engine_rpm:0.000000 
aileron:1.000000,elevator:0.000000,rudder:0.000000,flaps:0.000000,slats:0.000000,speedbrake:0.000000,throttle0:0.000000,throttle1:0.000000,engine-pump0:0,engine-pump1:0,electric-pump0:0,electric-pump1:0,external-power:0,APU-generator:0,latitude-deg:63.992,longitude-deg:-22.605,altitude-ft:146.230,roll-deg:0.102,pitch-deg:4.951,heading-deg:180.013,side-slip-deg:75.154,airspeed-kt:2.461,glideslope:-0.256,vertical-speed-fps:-0.000,airspeed-indicator_indicated-speed-kt:5.814185,altimeter_indicated-altitude-ft:405.942596,altimeter_pressure-alt-ft:91.065086,attitude-indicator_indicated-pitch-deg:12.000000,attitude-indicator_indicated-roll-deg:40.000000,attitude-indicator_internal-pitch-deg:0.000000,attitude-indicator_internal-roll-deg:0.000000,encoder_indicated-altitude-ft:90.000145,encoder_pressure-alt-ft:90.000000,gps_indicated-altitude-ft:146.229507,gps_indicated-ground-speed-kt:0.000064,gps_indicated-vertical-speed:-0.000839,indicated-heading-deg:192.901627,magnetic-compass_indicated-heading-deg:243.766434,slip-skid-ball_indicated-slip-skid:-0.016925,turn-indicator_indicated-turn-rate:-1.984181,vertical-speed-indicator_indicated-speed-fpm:-511.290955,engine_rpm:0.000000 
aileron:1.000000,elevator:0.000000,rudder:0.000000,flaps:0.000000,slats:0.000000,speedbrake:0.000000,throttle0:0.000000,throttle1:0.000000,engine-pump0:0,engine-pump1:0,electric-pump0:0,electric-pump1:0,external-power:0,APU-generator:0,latitude-deg:63.992,longitude-deg:-22.605,altitude-ft:146.230,roll-deg:0.102,pitch-deg:4.951,heading-deg:180.013,side-slip-deg:74.306,airspeed-kt:2.441,glideslope:-0.219,vertical-speed-fps:-0.000,airspeed-indicator_indicated-speed-kt:6.680692,altimeter_indicated-altitude-ft:403.519440,altimeter_pressure-alt-ft:88.641914,attitude-indicator_indicated-pitch-deg:12.000000,attitude-indicator_indicated-roll-deg:40.000000,attitude-indicator_internal-pitch-deg:0.000000,attitude-indicator_internal-roll-deg:0.000000,encoder_indicated-altitude-ft:90.000145,encoder_pressure-alt-ft:90.000000,gps_indicated-altitude-ft:146.229507,gps_indicated-ground-speed-kt:0.000062,gps_indicated-vertical-speed:-0.001141,indicated-heading-deg:192.901627,magnetic-compass_indicated-heading-deg:238.273712,slip-skid-ball_indicated-slip-skid:-0.017000,turn-indicator_indicated-turn-rate:-2.009389,vertical-speed-indicator_indicated-speed-fpm:-666.572754,engine_rpm:0.000000 
aileron:1.000000,elevator:0.000000,rudder:0.000000,flaps:0.000000,slats:0.000000,speedbrake:0.000000,throttle0:0.000000,throttle1:0.000000,engine-pump0:0,engine-pump1:0,electric-pump0:0,electric-pump1:0,external-power:0,APU-generator:0,latitude-deg:63.992,longitude-deg:-22.605,altitude-ft:146.230,roll-deg:0.102,pitch-deg:4.951,heading-deg:180.013,side-slip-deg:73.445,airspeed-kt:2.421,glideslope:-0.199,vertical-speed-fps:-0.000,airspeed-indicator_indicated-speed-kt:6.965895,altimeter_indicated-altitude-ft:400.829834,altimeter_pressure-alt-ft:85.952332,attitude-indicator_indicated-pitch-deg:12.000000,attitude-indicator_indicated-roll-deg:40.000000,attitude-indicator_internal-pitch-deg:0.000000,attitude-indicator_internal-roll-deg:0.000000,encoder_indicated-altitude-ft:90.000145,encoder_pressure-alt-ft:90.000000,gps_indicated-altitude-ft:146.229507,gps_indicated-ground-speed-kt:0.000061,gps_indicated-vertical-speed:-0.001375,indicated-heading-deg:192.901627,magnetic-compass_indicated-heading-deg:232.799316,slip-skid-ball_indicated-slip-skid:-0.017070,turn-indicator_indicated-turn-rate:-2.033365,vertical-speed-indicator_indicated-speed-fpm:-794.246826,engine_rpm:0.000000 
aileron:1.000000,elevator:0.000000,rudder:0.000000,flaps:0.000000,slats:0.000000,speedbrake:0.000000,throttle0:0.000000,throttle1:0.000000,engine-pump0:0,engine-pump1:0,electric-pump0:0,electric-pump1:0,external-power:0,APU-generator:0,latitude-deg:63.992,longitude-deg:-22.605,altitude-ft:146.230,roll-deg:0.102,pitch-deg:4.952,heading-deg:180.013,side-slip-deg:72.569,airspeed-kt:2.401,glideslope:-0.189,vertical-speed-fps:-0.000,airspeed-indicator_indicated-speed-kt:7.064665,altimeter_indicated-altitude-ft:398.046478,altimeter_pressure-alt-ft:83.168961,attitude-indicator_indicated-pitch-deg:12.000000,attitude-indicator_indicated-roll-deg:40.000000,attitude-indicator_internal-pitch-deg:0.000000,attitude-indicator_internal-roll-deg:0.000000,encoder_indicated-altitude-ft:90.000145,encoder_pressure-alt-ft:90.000000,gps_indicated-altitude-ft:146.229507,gps_indicated-ground-speed-kt:0.000060,gps_indicated-vertical-speed:-0.001442,indicated-heading-deg:192.901627,magnetic-compass_indicated-heading-deg:227.353699,slip-skid-ball_indicated-slip-skid:-0.017138,turn-indicator_indicated-turn-rate:-2.056170,vertical-speed-indicator_indicated-speed-fpm:-897.004517,engine_rpm:0.000000 
aileron:1.000000,elevator:0.000000,rudder:0.000000,flaps:0.000000,slats:0.000000,speedbrake:0.000000,throttle0:0.000000,throttle1:0.000000,engine-pump0:0,engine-pump1:0,electric-pump0:0,electric-pump1:0,external-power:0,APU-generator:0,latitude-deg:63.992,longitude-deg:-22.605,altitude-ft:146.230,roll-deg:0.102,pitch-deg:4.952,heading-deg:180.013,side-slip-deg:71.678,airspeed-kt:2.382,glideslope:-0.064,vertical-speed-fps:-0.000,airspeed-indicator_indicated-speed-kt:7.100321,altimeter_indicated-altitude-ft:395.230072,altimeter_pressure-alt-ft:80.352570,attitude-indicator_indicated-pitch-deg:12.000000,attitude-indicator_indicated-roll-deg:40.000000,attitude-indicator_internal-pitch-deg:0.000000,attitude-indicator_internal-roll-deg:0.000000,encoder_indicated-altitude-ft:80.000145,encoder_pressure-alt-ft:80.000000,gps_indicated-altitude-ft:146.229507,gps_indicated-ground-speed-kt:0.000059,gps_indicated-vertical-speed:-0.000805,indicated-heading-deg:192.901627,magnetic-compass_indicated-heading-deg:221.947128,slip-skid-ball_indicated-slip-skid:-0.017197,turn-indicator_indicated-turn-rate:-2.077860,vertical-speed-indicator_indicated-speed-fpm:-981.112427,engine_rpm:0.000000 
aileron:1.000000,elevator:0.000000,rudder:0.000000,flaps:0.000000,slats:0.000000,speedbrake:0.000000,throttle0:0.000000,throttle1:0.000000,engine-pump0:0,engine-pump1:0,electric-pump0:0,electric-pump1:0,external-power:0,APU-generator:0,latitude-deg:63.992,longitude-deg:-22.605,altitude-ft:146.230,roll-deg:0.103,pitch-deg:4.952,heading-deg:180.013,side-slip-deg:70.774,airspeed-kt:2.364,glideslope:-0.225,vertical-speed-fps:-0.000,airspeed-indicator_indicated-speed-kt:7.114044,altimeter_indicated-altitude-ft:392.402039,altimeter_pressure-alt-ft:77.524544,attitude-indicator_indicated-pitch-deg:12.000000,attitude-indicator_indicated-roll-deg:40.000000,attitude-indicator_internal-pitch-deg:0.000000,attitude-indicator_internal-roll-deg:0.000000,encoder_indicated-altitude-ft:80.000145,encoder_pressure-alt-ft:80.000000,gps_indicated-altitude-ft:146.229507,gps_indicated-ground-speed-kt:0.000058,gps_indicated-vertical-speed:-0.000704,indicated-heading-deg:192.901627,magnetic-compass_indicated-heading-deg:216.589508,slip-skid-ball_indicated-slip-skid:-0.017267,turn-indicator_indicated-turn-rate:-2.098490,vertical-speed-indicator_indicated-speed-fpm:-1051.407104,engine_rpm:0.000000 
aileron:1.000000,elevator:0.000000,rudder:0.000000,flaps:0.000000,slats:0.000000,speedbrake:0.000000,throttle0:0.000000,throttle1:0.000000,engine-pump0:0,engine-pump1:0,electric-pump0:0,electric-pump1:0,external-power:0,APU-generator:0,latitude-deg:63.992,longitude-deg:-22.605,altitude-ft:146.229,roll-deg:0.103,pitch-deg:4.952,heading-deg:180.013,side-slip-deg:69.856,airspeed-kt:2.346,glideslope:-0.218,vertical-speed-fps:-0.000,airspeed-indicator_indicated-speed-kt:7.120070,altimeter_indicated-altitude-ft:389.569916,altimeter_pressure-alt-ft:74.692406,attitude-indicator_indicated-pitch-deg:12.000000,attitude-indicator_indicated-roll-deg:40.000000,attitude-indicator_internal-pitch-deg:0.000000,attitude-indicator_internal-roll-deg:0.000000,encoder_indicated-altitude-ft:80.000145,encoder_pressure-alt-ft:80.000000,gps_indicated-altitude-ft:146.229492,gps_indicated-ground-speed-kt:0.000056,gps_indicated-vertical-speed:-0.001811,indicated-heading-deg:192.901627,magnetic-compass_indicated-heading-deg:211.290497,slip-skid-ball_indicated-slip-skid:-0.017332,turn-indicator_indicated-turn-rate:-2.118111,vertical-speed-indicator_indicated-speed-fpm:-1111.250000,engine_rpm:0.000000 
aileron:1.000000,elevator:0.000000,rudder:0.000000,flaps:0.000000,slats:0.000000,speedbrake:0.000000,throttle0:0.000000,throttle1:0.000000,engine-pump0:0,engine-pump1:0,electric-pump0:0,electric-pump1:0,external-power:0,APU-generator:0,latitude-deg:63.992,longitude-deg:-22.605,altitude-ft:146.229,roll-deg:0.103,pitch-deg:4.952,heading-deg:180.013,side-slip-deg:68.923,airspeed-kt:2.329,glideslope:-0.205,vertical-speed-fps:-0.000,airspeed-indicator_indicated-speed-kt:7.123375,altimeter_indicated-altitude-ft:386.736328,altimeter_pressure-alt-ft:71.858818,attitude-indicator_indicated-pitch-deg:12.000000,attitude-indicator_indicated-roll-deg:40.000000,attitude-indicator_internal-pitch-deg:0.000000,attitude-indicator_internal-roll-deg:0.000000,encoder_indicated-altitude-ft:70.000145,encoder_pressure-alt-ft:70.000000,gps_indicated-altitude-ft:146.229492,gps_indicated-ground-speed-kt:0.000055,gps_indicated-vertical-speed:-0.001811,indicated-heading-deg:192.901627,magnetic-compass_indicated-heading-deg:206.059418,slip-skid-ball_indicated-slip-skid:-0.017388,turn-indicator_indicated-turn-rate:-2.136774,vertical-speed-indicator_indicated-speed-fpm:-1162.966553,engine_rpm:0.000000 
aileron:1.000000,elevator:0.000000,rudder:0.000000,flaps:0.000000,slats:0.000000,speedbrake:0.000000,throttle0:0.000000,throttle1:0.000000,engine-pump0:0,engine-pump1:0,electric-pump0:0,electric-pump1:0,external-power:0,APU-generator:0,latitude-deg:63.992,longitude-deg:-22.605,altitude-ft:146.229,roll-deg:0.103,pitch-deg:4.952,heading-deg:180.013,side-slip-deg:67.978,airspeed-kt:2.312,glideslope:-0.081,vertical-speed-fps:-0.000,airspeed-indicator_indicated-speed-kt:7.125706,altimeter_indicated-altitude-ft:383.902222,altimeter_pressure-alt-ft:69.024704,attitude-indicator_indicated-pitch-deg:12.000000,attitude-indicator_indicated-roll-deg:40.000000,attitude-indicator_internal-pitch-deg:0.000000,attitude-indicator_internal-roll-deg:0.000000,encoder_indicated-altitude-ft:70.000145,encoder_pressure-alt-ft:70.000000,gps_indicated-altitude-ft:146.229492,gps_indicated-ground-speed-kt:0.000054,gps_indicated-vertical-speed:-0.000637,indicated-heading-deg:192.901627,magnetic-compass_indicated-heading-deg:200.905319,slip-skid-ball_indicated-slip-skid:-0.017438,turn-indicator_indicated-turn-rate:-2.154525,vertical-speed-indicator_indicated-speed-fpm:-1208.200073,engine_rpm:0.000000 
aileron:1.000000,elevator:0.000000,rudder:0.000000,flaps:0.000000,slats:0.000000,speedbrake:0.000000,throttle0:0.000000,throttle1:0.000000,engine-pump0:0,engine-pump1:0,electric-pump0:0,electric-pump1:0,external-power:0,APU-generator:0,latitude-deg:63.992,longitude-deg:-22.605,altitude-ft:146.229,roll-deg:0.103,pitch-deg:4.952,heading-deg:180.013,side-slip-deg:67.018,airspeed-kt:2.296,glideslope:-0.092,vertical-speed-fps:-0.000,airspeed-indicator_indicated-speed-kt:7.127677,altimeter_indicated-altitude-ft:381.067902,altimeter_pressure-alt-ft:66.190392,attitude-indicator_indicated-pitch-deg:12.000000,attitude-indicator_indicated-roll-deg:40.000000,attitude-indicator_internal-pitch-deg:0.000000,attitude-indicator_internal-roll-deg:0.000000,encoder_indicated-altitude-ft:70.000145,encoder_pressure-alt-ft:70.000000,gps_indicated-altitude-ft:146.229492,gps_indicated-ground-speed-kt:0.000053,gps_indicated-vertical-speed:-0.001006,indicated-heading-deg:192.901627,magnetic-compass_indicated-heading-deg:195.836884,slip-skid-ball_indicated-slip-skid:-0.017488,turn-indicator_indicated-turn-rate:-2.171408,vertical-speed-indicator_indicated-speed-fpm:-1248.144775,engine_rpm:0.000000 
aileron:1.000000,elevator:0.000000,rudder:0.000000,flaps:0.000000,slats:0.000000,speedbrake:0.000000,throttle0:0.000000,throttle1:0.000000,engine-pump0:0,engine-pump1:0,electric-pump0:0,electric-pump1:0,external-power:0,APU-generator:0,latitude-deg:63.992,longitude-deg:-22.605,altitude-ft:146.229,roll-deg:0.103,pitch-deg:4.952,heading-deg:180.013,side-slip-deg:66.046,airspeed-kt:2.281,glideslope:-0.233,vertical-speed-fps:-0.000,airspeed-indicator_indicated-speed-kt:7.129508,altimeter_indicated-altitude-ft:378.233521,altimeter_pressure-alt-ft:63.356003,attitude-indicator_indicated-pitch-deg:12.000000,attitude-indicator_indicated-roll-deg:40.000000,attitude-indicator_internal-pitch-deg:0.000000,attitude-indicator_internal-roll-deg:0.000000,encoder_indicated-altitude-ft:70.000145,encoder_pressure-alt-ft:70.000000,gps_indicated-altitude-ft:146.229492,gps_indicated-ground-speed-kt:0.000052,gps_indicated-vertical-speed:-0.001778,indicated-heading-deg:192.901627,magnetic-compass_indicated-heading-deg:190.862442,slip-skid-ball_indicated-slip-skid:-0.017545,turn-indicator_indicated-turn-rate:-2.187467,vertical-speed-indicator_indicated-speed-fpm:-1283.693604,engine_rpm:0.000000 
aileron:1.000000,elevator:0.000000,rudder:0.000000,flaps:0.000000,slats:0.000000,speedbrake:0.000000,throttle0:0.000000,throttle1:0.000000,engine-pump0:0,engine-pump1:0,electric-pump0:0,electric-pump1:0,external-power:0,APU-generator:0,latitude-deg:63.992,longitude-deg:-22.605,altitude-ft:146.229,roll-deg:0.103,pitch-deg:4.952,heading-deg:180.013,side-slip-deg:65.060,airspeed-kt:2.266,glideslope:-0.217,vertical-speed-fps:-0.000,airspeed-indicator_indicated-speed-kt:7.131272,altimeter_indicated-altitude-ft:375.399078,altimeter_pressure-alt-ft:60.521576,attitude-indicator_indicated-pitch-deg:12.000000,attitude-indicator_indicated-roll-deg:40.000000,attitude-indicator_internal-pitch-deg:0.000000,attitude-indicator_internal-roll-deg:0.000000,encoder_indicated-altitude-ft:60.000141,encoder_pressure-alt-ft:60.000000,gps_indicated-altitude-ft:146.229492,gps_indicated-ground-speed-kt:0.000051,gps_indicated-vertical-speed:-0.001744,indicated-heading-deg:192.901627,magnetic-compass_indicated-heading-deg:185.990005,slip-skid-ball_indicated-slip-skid:-0.017593,turn-indicator_indicated-turn-rate:-2.202740,vertical-speed-indicator_indicated-speed-fpm:-1315.531616,engine_rpm:0.000000 
aileron:1.000000,elevator:0.000000,rudder:0.000000,flaps:0.000000,slats:0.000000,speedbrake:0.000000,throttle0:0.000000,throttle1:0.000000,engine-pump0:0,engine-pump1:0,electric-pump0:0,electric-pump1:0,external-power:0,APU-generator:0,latitude-deg:63.992,longitude-deg:-22.605,altitude-ft:146.229,roll-deg:0.104,pitch-deg:4.952,heading-deg:180.013,side-slip-deg:64.062,airspeed-kt:2.252,glideslope:-0.200,vertical-speed-fps:-0.000,airspeed-indicator_indicated-speed-kt:7.132997,altimeter_indicated-altitude-ft:372.564636,altimeter_pressure-alt-ft:57.687126,attitude-indicator_indicated-pitch-deg:12.000000,attitude-indicator_indicated-roll-deg:40.000000,attitude-indicator_internal-pitch-deg:0.000000,attitude-indicator_internal-roll-deg:0.000000,encoder_indicated-altitude-ft:60.000141,encoder_pressure-alt-ft:60.000000,gps_indicated-altitude-ft:146.229477,gps_indicated-ground-speed-kt:0.000050,gps_indicated-vertical-speed:-0.001677,indicated-heading-deg:192.901627,magnetic-compass_indicated-heading-deg:181.227188,slip-skid-ball_indicated-slip-skid:-0.017637,turn-indicator_indicated-turn-rate:-2.217267,vertical-speed-indicator_indicated-speed-fpm:-1344.196899,engine_rpm:0.000000 
aileron:1.000000,elevator:0.000000,rudder:0.000000,flaps:0.000000,slats:0.000000,speedbrake:0.000000,throttle0:0.000000,throttle1:0.000000,engine-pump0:0,engine-pump1:0,electric-pump0:0,electric-pump1:0,external-power:0,APU-generator:0,latitude-deg:63.992,longitude-deg:-22.605,altitude-ft:146.229,roll-deg:0.104,pitch-deg:4.952,heading-deg:180.013,side-slip-deg:63.052,airspeed-kt:2.239,glideslope:-0.063,vertical-speed-fps:-0.000,airspeed-indicator_indicated-speed-kt:7.134691,altimeter_indicated-altitude-ft:369.730164,altimeter_pressure-alt-ft:54.852654,attitude-indicator_indicated-pitch-deg:12.000000,attitude-indicator_indicated-roll-deg:40.000000,attitude-indicator_internal-pitch-deg:0.000000,attitude-indicator_internal-roll-deg:0.000000,encoder_indicated-altitude-ft:60.000141,encoder_pressure-alt-ft:60.000000,gps_indicated-altitude-ft:146.229477,gps_indicated-ground-speed-kt:0.000049,gps_indicated-vertical-speed:-0.000805,indicated-heading-deg:192.901627,magnetic-compass_indicated-heading-deg:176.581268,slip-skid-ball_indicated-slip-skid:-0.017673,turn-indicator_indicated-turn-rate:-2.231084,vertical-speed-indicator_indicated-speed-fpm:-1370.119873,engine_rpm:0.000000 
aileron:1.000000,elevator:0.000000,rudder:0.000000,flaps:0.000000,slats:0.000000,speedbrake:0.000000,throttle0:0.000000,throttle1:0.000000,engine-pump0:0,engine-pump1:0,electric-pump0:0,electric-pump1:0,external-power:0,APU-generator:0,latitude-deg:63.992,longitude-deg:-22.605,altitude-ft:146.229,roll-deg:0.104,pitch-deg:4.952,heading-deg:180.013,side-slip-deg:62.030,airspeed-kt:2.226,glideslope:-0.080,vertical-speed-fps:-0.000,airspeed-indicator_indicated-speed-kt:7.136358,altimeter_indicated-altitude-ft:366.895691,altimeter_pressure-alt-ft:52.018169,attitude-indicator_indicated-pitch-deg:12.000000,attitude-indicator_indicated-roll-deg:40.000000,attitude-indicator_internal-pitch-deg:0.000000,attitude-indicator_internal-roll-deg:0.000000,encoder_indicated-altitude-ft:50.000141,encoder_pressure-alt-ft:50.000000,gps_indicated-altitude-ft:146.229477,gps_indicated-ground-speed-kt:0.000048,gps_indicated-vertical-speed:-0.000839,indicated-heading-deg:192.901627,magnetic-compass_indicated-heading-deg:172.059128,slip-skid-ball_indicated-slip-skid:-0.017715,turn-indicator_indicated-turn-rate:-2.244226,vertical-speed-indicator_indicated-speed-fpm:-1393.651367,engine_rpm:0.000000 
aileron:1.000000,elevator:0.000000,rudder:0.000000,flaps:0.000000,slats:0.000000,speedbrake:0.000000,throttle0:0.000000,throttle1:0.000000,engine-pump0:0,engine-pump1:0,electric-pump0:0,electric-pump1:0,external-power:0,APU-generator:0,latitude-deg:63.992,longitude-deg:-22.605,altitude-ft:146.229,roll-deg:0.104,pitch-deg:4.952,heading-deg:180.013,side-slip-deg:60.997,airspeed-kt:2.215,glideslope:-0.094,vertical-speed-fps:-0.000,airspeed-indicator_indicated-speed-kt:7.138000,altimeter_indicated-altitude-ft:364.061188,altimeter_pressure-alt-ft:49.183666,attitude-indicator_indicated-pitch-deg:12.000000,attitude-indicator_indicated-roll-deg:40.000000,attitude-indicator_internal-pitch-deg:0.000000,attitude-indicator_internal-roll-deg:0.000000,encoder_indicated-altitude-ft:50.000141,encoder_pressure-alt-ft:50.000000,gps_indicated-altitude-ft:146.229477,gps_indicated-ground-speed-kt:0.000047,gps_indicated-vertical-speed:-0.000906,indicated-heading-deg:192.901627,magnetic-compass_indicated-heading-deg:167.667297,slip-skid-ball_indicated-slip-skid:-0.017756,turn-indicator_indicated-turn-rate:-2.256726,vertical-speed-indicator_indicated-speed-fpm:-1415.080933,engine_rpm:0.000000 
aileron:1.000000,elevator:0.000000,rudder:0.000000,flaps:0.000000,slats:0.000000,speedbrake:0.000000,throttle0:0.000000,throttle1:0.000000,engine-pump0:0,engine-pump1:0,electric-pump0:0,electric-pump1:0,external-power:0,APU-generator:0,latitude-deg:63.992,longitude-deg:-22.605,altitude-ft:146.229,roll-deg:0.104,pitch-deg:4.952,heading-deg:180.013,side-slip-deg:59.953,airspeed-kt:2.203,glideslope:-0.260,vertical-speed-fps:-0.000,airspeed-indicator_indicated-speed-kt:7.139617,altimeter_indicated-altitude-ft:361.226654,altimeter_pressure-alt-ft:46.349144,attitude-indicator_indicated-pitch-deg:12.000000,attitude-indicator_indicated-roll-deg:40.000000,attitude-indicator_internal-pitch-deg:0.000000,attitude-indicator_internal-roll-deg:0.000000,encoder_indicated-altitude-ft:50.000141,encoder_pressure-alt-ft:50.000000,gps_indicated-altitude-ft:146.229477,gps_indicated-ground-speed-kt:0.000046,gps_indicated-vertical-speed:-0.001342,indicated-heading-deg:192.901627,magnetic-compass_indicated-heading-deg:163.411880,slip-skid-ball_indicated-slip-skid:-0.017801,turn-indicator_indicated-turn-rate:-2.268615,vertical-speed-indicator_indicated-speed-fpm:-1434.651001,engine_rpm:0.000000 
aileron:1.000000,elevator:0.000000,rudder:0.000000,flaps:0.000000,slats:0.000000,speedbrake:0.000000,throttle0:0.000000,throttle1:0.000000,engine-pump0:0,engine-pump1:0,electric-pump0:0,electric-pump1:0,external-power:0,APU-generator:0,latitude-deg:63.992,longitude-deg:-22.605,altitude-ft:146.229,roll-deg:0.104,pitch-deg:4.952,heading-deg:180.013,side-slip-deg:58.899,airspeed-kt:2.193,glideslope:-0.091,vertical-speed-fps:-0.000,airspeed-indicator_indicated-speed-kt:7.229493,altimeter_indicated-altitude-ft:358.392120,altimeter_pressure-alt-ft:43.514606,attitude-indicator_indicated-pitch-deg:12.000000,attitude-indicator_indicated-roll-deg:40.000000,attitude-indicator_internal-pitch-deg:0.000000,attitude-indicator_internal-roll-deg:0.000000,encoder_indicated-altitude-ft:50.000141,encoder_pressure-alt-ft:50.000000,gps_indicated-altitude-ft:146.229477,gps_indicated-ground-speed-kt:0.000045,gps_indicated-vertical-speed:-0.000772,indicated-heading-deg:192.901627,magnetic-compass_indicated-heading-deg:159.298599,slip-skid-ball_indicated-slip-skid:-0.017836,turn-indicator_indicated-turn-rate:-2.279922,vertical-speed-indicator_indicated-speed-fpm:-1452.566528,engine_rpm:0.000000 
aileron:1.000000,elevator:0.000000,rudder:0.000000,flaps:0.000000,slats:0.000000,speedbrake:0.000000,throttle0:0.000000,throttle1:0.000000,engine-pump0:0,engine-pump1:0,electric-pump0:0,electric-pump1:0,external-power:0,APU-generator:0,latitude-deg:63.992,longitude-deg:-22.605,altitude-ft:146.229,roll-deg:0.104,pitch-deg:4.953,heading-deg:180.013,side-slip-deg:57.746,airspeed-kt:2.183,glideslope:-0.092,vertical-speed-fps:-0.000,airspeed-indicator_indicated-speed-kt:7.208219,altimeter_indicated-altitude-ft:355.277527,altimeter_pressure-alt-ft:40.400017,attitude-indicator_indicated-pitch-deg:12.000000,attitude-indicator_indicated-roll-deg:40.000000,attitude-indicator_internal-pitch-deg:0.000000,attitude-indicator_internal-roll-deg:0.000000,encoder_indicated-altitude-ft:40.000141,encoder_pressure-alt-ft:40.000000,gps_indicated-altitude-ft:146.229477,gps_indicated-ground-speed-kt:0.000044,gps_indicated-vertical-speed:-0.000973,indicated-heading-deg:192.901627,magnetic-compass_indicated-heading-deg:155.009140,slip-skid-ball_indicated-slip-skid:-0.017871,turn-indicator_indicated-turn-rate:-2.291550,vertical-speed-indicator_indicated-speed-fpm:-1472.136719,engine_rpm:0.000000 
aileron:1.000000,elevator:0.000000,rudder:0.000000,flaps:0.000000,slats:0.000000,speedbrake:0.000000,throttle0:0.000000,throttle1:0.000000,engine-pump0:0,engine-pump1:0,electric-pump0:0,electric-pump1:0,external-power:0,APU-generator:0,latitude-deg:63.992,longitude-deg:-22.605,altitude-ft:146.229,roll-deg:0.105,pitch-deg:4.953,heading-deg:180.013,side-slip-deg:56.762,airspeed-kt:2.175,glideslope:-0.098,vertical-speed-fps:-0.000,airspeed-indicator_indicated-speed-kt:7.245247,altimeter_indicated-altitude-ft:352.726959,altimeter_pressure-alt-ft:37.849464,attitude-indicator_indicated-pitch-deg:12.000000,attitude-indicator_indicated-roll-deg:40.000000,attitude-indicator_internal-pitch-deg:0.000000,attitude-indicator_internal-roll-deg:0.000000,encoder_indicated-altitude-ft:40.000141,encoder_pressure-alt-ft:40.000000,gps_indicated-altitude-ft:146.229477,gps_indicated-ground-speed-kt:0.000044,gps_indicated-vertical-speed:-0.000839,indicated-heading-deg:192.901627,magnetic-compass_indicated-heading-deg:151.519424,slip-skid-ball_indicated-slip-skid:-0.017909,turn-indicator_indicated-turn-rate:-2.300907,vertical-speed-indicator_indicated-speed-fpm:-1483.870117,engine_rpm:0.000000 
aileron:1.000000,elevator:0.000000,rudder:0.000000,flaps:0.000000,slats:0.000000,speedbrake:0.000000,throttle0:0.000000,throttle1:0.000000,engine-pump0:0,engine-pump1:0,electric-pump0:0,electric-pump1:0,external-power:0,APU-generator:0,latitude-deg:63.992,longitude-deg:-22.605,altitude-ft:146.229,roll-deg:0.105,pitch-deg:4.953,heading-deg:180.013,side-slip-deg:55.680,airspeed-kt:2.167,glideslope:-0.099,vertical-speed-fps:-0.000,airspeed-indicator_indicated-speed-kt:7.251522,altimeter_indicated-altitude-ft:349.889801,altimeter_pressure-alt-ft:35.012299,attitude-indicator_indicated-pitch-deg:12.000000,attitude-indicator_indicated-roll-deg:40.000000,attitude-indicator_internal-pitch-deg:0.000000,attitude-indicator_internal-roll-deg:0.000000,encoder_indicated-altitude-ft:40.000141,encoder_pressure-alt-ft:40.000000,gps_indicated-altitude-ft:146.229462,gps_indicated-ground-speed-kt:0.000043,gps_indicated-vertical-speed:-0.000805,indicated-heading-deg:192.901627,magnetic-compass_indicated-heading-deg:147.862991,slip-skid-ball_indicated-slip-skid:-0.017943,turn-indicator_indicated-turn-rate:-2.310637,vertical-speed-indicator_indicated-speed-fpm:-1497.903809,engine_rpm:0.000000 
aileron:1.000000,elevator:0.000000,rudder:0.000000,flaps:0.000000,slats:0.000000,speedbrake:0.000000,throttle0:0.000000,throttle1:0.000000,engine-pump0:0,engine-pump1:0,electric-pump0:0,electric-pump1:0,external-power:0,APU-generator:0,latitude-deg:63.992,longitude-deg:-22.605,altitude-ft:146.229,roll-deg:0.105,pitch-deg:4.953,heading-deg:180.013,side-slip-deg:54.591,airspeed-kt:2.159,glideslope:-0.249,vertical-speed-fps:-0.000,airspeed-indicator_indicated-speed-kt:7.256372,altimeter_indicated-altitude-ft:347.054291,altimeter_pressure-alt-ft:32.176792,attitude-indicator_indicated-pitch-deg:12.000000,attitude-indicator_indicated-roll-deg:40.000000,attitude-indicator_internal-pitch-deg:0.000000,attitude-indicator_internal-roll-deg:0.000000,encoder_indicated-altitude-ft:30.000143,encoder_pressure-alt-ft:30.000000,gps_indicated-altitude-ft:146.229462,gps_indicated-ground-speed-kt:0.000042,gps_indicated-vertical-speed:-0.002281,indicated-heading-deg:192.901627,magnetic-compass_indicated-heading-deg:144.367645,slip-skid-ball_indicated-slip-skid:-0.017979,turn-indicator_indicated-turn-rate:-2.319891,vertical-speed-indicator_indicated-speed-fpm:-1510.774658,engine_rpm:0.000000 
aileron:1.000000,elevator:0.000000,rudder:0.000000,flaps:0.000000,slats:0.000000,speedbrake:0.000000,throttle0:0.000000,throttle1:0.000000,engine-pump0:0,engine-pump1:0,electric-pump0:0,electric-pump1:0,external-power:0,APU-generator:0,latitude-deg:63.992,longitude-deg:-22.605,altitude-ft:146.229,roll-deg:0.105,pitch-deg:4.953,heading-deg:180.013,side-slip-deg:53.495,airspeed-kt:2.153,glideslope:-0.239,vertical-speed-fps:-0.000,airspeed-indicator_indicated-speed-kt:7.262364,altimeter_indicated-altitude-ft:344.219360,altimeter_pressure-alt-ft:29.341852,attitude-indicator_indicated-pitch-deg:12.000000,attitude-indicator_indicated-roll-deg:40.000000,attitude-indicator_internal-pitch-deg:0.000000,attitude-indicator_internal-roll-deg:0.000000,encoder_indicated-altitude-ft:30.000143,encoder_pressure-alt-ft:30.000000,gps_indicated-altitude-ft:146.229462,gps_indicated-ground-speed-kt:0.000041,gps_indicated-vertical-speed:-0.001476,indicated-heading-deg:192.901627,magnetic-compass_indicated-heading-deg:141.037125,slip-skid-ball_indicated-slip-skid:-0.018012,turn-indicator_indicated-turn-rate:-2.328693,vertical-speed-indicator_indicated-speed-fpm:-1522.634155,engine_rpm:0.000000 
aileron:1.000000,elevator:0.000000,rudder:0.000000,flaps:0.000000,slats:0.000000,speedbrake:0.000000,throttle0:0.000000,throttle1:0.000000,engine-pump0:0,engine-pump1:0,electric-pump0:0,electric-pump1:0,external-power:0,APU-generator:0,latitude-deg:63.992,longitude-deg:-22.605,altitude-ft:146.229,roll-deg:0.105,pitch-deg:4.953,heading-deg:180.013,side-slip-deg:52.392,airspeed-kt:2.147,glideslope:-0.195,vertical-speed-fps:-0.000,airspeed-indicator_indicated-speed-kt:7.268826,altimeter_indicated-altitude-ft:341.384613,altimeter_pressure-alt-ft:26.507105,attitude-indicator_indicated-pitch-deg:12.000000,attitude-indicator_indicated-roll-deg:40.000000,attitude-indicator_internal-pitch-deg:0.000000,attitude-indicator_internal-roll-deg:0.000000,encoder_indicated-altitude-ft:30.000143,encoder_pressure-alt-ft:30.000000,gps_indicated-altitude-ft:146.229462,gps_indicated-ground-speed-kt:0.000040,gps_indicated-vertical-speed:-0.001208,indicated-heading-deg:192.901627,magnetic-compass_indicated-heading-deg:137.874756,slip-skid-ball_indicated-slip-skid:-0.018039,turn-indicator_indicated-turn-rate:-2.337065,vertical-speed-indicator_indicated-speed-fpm:-1533.588623,engine_rpm:0.000000 
aileron:1.000000,elevator:0.000000,rudder:0.000000,flaps:0.000000,slats:0.000000,speedbrake:0.000000,throttle0:0.000000,throttle1:0.000000,engine-pump0:0,engine-pump1:0,electric-pump0:0,electric-pump1:0,external-power:0,APU-generator:0,latitude-deg:63.992,longitude-deg:-22.605,altitude-ft:146.229,roll-deg:0.105,pitch-deg:4.953,heading-deg:180.013,side-slip-deg:51.284,airspeed-kt:2.142,glideslope:-0.159,vertical-speed-fps:-0.000,airspeed-indicator_indicated-speed-kt:7.275511,altimeter_indicated-altitude-ft:338.549927,altimeter_pressure-alt-ft:23.672413,attitude-indicator_indicated-pitch-deg:12.000000,attitude-indicator_indicated-roll-deg:40.000000,attitude-indicator_internal-pitch-deg:0.000000,attitude-indicator_internal-roll-deg:0.000000,encoder_indicated-altitude-ft:30.000143,encoder_pressure-alt-ft:30.000000,gps_indicated-altitude-ft:146.229462,gps_indicated-ground-speed-kt:0.000039,gps_indicated-vertical-speed:-0.001006,indicated-heading-deg:192.901627,magnetic-compass_indicated-heading-deg:134.883469,slip-skid-ball_indicated-slip-skid:-0.018065,turn-indicator_indicated-turn-rate:-2.345027,vertical-speed-indicator_indicated-speed-fpm:-1543.722778,engine_rpm:0.000000 
aileron:1.000000,elevator:0.000000,rudder:0.000000,flaps:0.000000,slats:0.000000,speedbrake:0.000000,throttle0:0.000000,throttle1:0.000000,engine-pump0:0,engine-pump1:0,electric-pump0:0,electric-pump1:0,external-power:0,APU-generator:0,latitude-deg:63.992,longitude-deg:-22.605,altitude-ft:146.229,roll-deg:0.105,pitch-deg:4.953,heading-deg:180.013,side-slip-deg:50.171,airspeed-kt:2.138,glideslope:-0.129,vertical-speed-fps:-0.000,airspeed-indicator_indicated-speed-kt:7.282332,altimeter_indicated-altitude-ft:335.715240,altimeter_pressure-alt-ft:20.837729,attitude-indicator_indicated-pitch-deg:12.000000,attitude-indicator_indicated-roll-deg:40.000000,attitude-indicator_internal-pitch-deg:0.000000,attitude-indicator_internal-roll-deg:0.000000,encoder_indicated-altitude-ft:20.000143,encoder_pressure-alt-ft:20.000000,gps_indicated-altitude-ft:146.229462,gps_indicated-ground-speed-kt:0.000039,gps_indicated-vertical-speed:-0.000872,indicated-heading-deg:192.901627,magnetic-compass_indicated-heading-deg:132.065826,slip-skid-ball_indicated-slip-skid:-0.018091,turn-indicator_indicated-turn-rate:-2.352601,vertical-speed-indicator_indicated-speed-fpm:-1553.108765,engine_rpm:0.000000 
aileron:1.000000,elevator:0.000000,rudder:0.000000,flaps:0.000000,slats:0.000000,speedbrake:0.000000,throttle0:0.000000,throttle1:0.000000,engine-pump0:0,engine-pump1:0,electric-pump0:0,electric-pump1:0,external-power:0,APU-generator:0,latitude-deg:63.992,longitude-deg:-22.605,altitude-ft:146.229,roll-deg:0.106,pitch-deg:4.953,heading-deg:180.013,side-slip-deg:42.131,airspeed-kt:2.132,glideslope:0.136,vertical-speed-fps:0.000,airspeed-indicator_indicated-speed-kt:1.552296,altimeter_indicated-altitude-ft:313.416412,altimeter_pressure-alt-ft:-1.461087,attitude-indicator_indicated-pitch-deg:12.000000,attitude-indicator_indicated-roll-deg:40.000000,attitude-indicator_internal-pitch-deg:0.000000,attitude-indicator_internal-roll-deg:0.000000,encoder_indicated-altitude-ft:0.000142,encoder_pressure-alt-ft:0.000000,gps_indicated-altitude-ft:146.229462,gps_indicated-ground-speed-kt:0.000033,gps_indicated-vertical-speed:0.000201,indicated-heading-deg:192.901627,magnetic-compass_indicated-heading-deg:117.092072,slip-skid-ball_indicated-slip-skid:-0.018295,turn-indicator_indicated-turn-rate:-2.397069,vertical-speed-indicator_indicated-speed-fpm:-1558.193726,engine_rpm:0.000000 
aileron:1.000000,elevator:0.000000,rudder:0.000000,flaps:0.000000,slats:0.000000,speedbrake:0.000000,throttle0:0.000000,throttle1:0.000000,engine-pump0:0,engine-pump1:0,electric-pump0:0,electric-pump1:0,external-power:0,APU-generator:0,latitude-deg:63.992,longitude-deg:-22.605,altitude-ft:146.229,roll-deg:0.107,pitch-deg:4.953,heading-deg:180.014,side-slip-deg:31.163,airspeed-kt:2.193,glideslope:-0.017,vertical-speed-fps:-0.000,airspeed-indicator_indicated-speed-kt:1.806195,altimeter_indicated-altitude-ft:286.384949,altimeter_pressure-alt-ft:-28.492567,attitude-indicator_indicated-pitch-deg:12.000000,attitude-indicator_indicated-roll-deg:40.000000,attitude-indicator_internal-pitch-deg:0.000000,attitude-indicator_internal-roll-deg:0.000000,encoder_indicated-altitude-ft:-29.999857,encoder_pressure-alt-ft:-30.000000,gps_indicated-altitude-ft:146.229462,gps_indicated-ground-speed-kt:0.000027,gps_indicated-vertical-speed:-0.000034,indicated-heading-deg:192.901627,magnetic-compass_indicated-heading-deg:111.401955,slip-skid-ball_indicated-slip-skid:-0.018536,turn-indicator_indicated-turn-rate:-2.437634,vertical-speed-indicator_indicated-speed-fpm:-1420.447510,engine_rpm:0.000000 
aileron:1.000000,elevator:0.000000,rudder:0.000000,flaps:0.000000,slats:0.000000,speedbrake:0.000000,throttle0:0.000000,throttle1:0.000000,engine-pump0:0,engine-pump1:0,electric-pump0:0,electric-pump1:0,external-power:0,APU-generator:0,latitude-deg:63.992,longitude-deg:-22.605,altitude-ft:146.229,roll-deg:0.107,pitch-deg:4.953,heading-deg:180.014,side-slip-deg:30.196,airspeed-kt:2.203,glideslope:0.201,vertical-speed-fps:0.000,airspeed-indicator_indicated-speed-kt:5.385079,altimeter_indicated-altitude-ft:284.858643,altimeter_pressure-alt-ft:-30.018856,attitude-indicator_indicated-pitch-deg:12.000000,attitude-indicator_indicated-roll-deg:40.000000,attitude-indicator_internal-pitch-deg:0.000000,attitude-indicator_internal-roll-deg:0.000000,encoder_indicated-altitude-ft:-29.999857,encoder_pressure-alt-ft:-30.000000,gps_indicated-altitude-ft:146.229462,gps_indicated-ground-speed-kt:0.000027,gps_indicated-vertical-speed:0.000134,indicated-heading-deg:192.901627,magnetic-compass_indicated-heading-deg:111.712471,slip-skid-ball_indicated-slip-skid:-0.018541,turn-indicator_indicated-turn-rate:-2.440434,vertical-speed-indicator_indicated-speed-fpm:-1394.031738,engine_rpm:0.000000 
aileron:1.000000,elevator:0.000000,rudder:0.000000,flaps:0.000000,slats:0.000000,speedbrake:0.000000,throttle0:0.000000,throttle1:0.000000,engine-pump0:0,engine-pump1:0,electric-pump0:0,electric-pump1:0,external-power:0,APU-generator:0,latitude-deg:63.992,longitude-deg:-22.605,altitude-ft:146.229,roll-deg:0.107,pitch-deg:4.953,heading-deg:180.014,side-slip-deg:29.151,airspeed-kt:2.214,glideslope:0.265,vertical-speed-fps:0.000,airspeed-indicator_indicated-speed-kt:6.719967,altimeter_indicated-altitude-ft:282.817139,altimeter_pressure-alt-ft:-32.060371,attitude-indicator_indicated-pitch-deg:12.000000,attitude-indicator_indicated-roll-deg:40.000000,attitude-indicator_internal-pitch-deg:0.000000,attitude-indicator_internal-roll-deg:0.000000,encoder_indicated-altitude-ft:-29.999857,encoder_pressure-alt-ft:-30.000000,gps_indicated-altitude-ft:146.229462,gps_indicated-ground-speed-kt:0.000026,gps_indicated-vertical-speed:0.000302,indicated-heading-deg:192.901627,magnetic-compass_indicated-heading-deg:112.198395,slip-skid-ball_indicated-slip-skid:-0.018552,turn-indicator_indicated-turn-rate:-2.443345,vertical-speed-indicator_indicated-speed-fpm:-1384.888916,engine_rpm:0.000000 
aileron:1.000000,elevator:0.000000,rudder:0.000000,flaps:0.000000,slats:0.000000,speedbrake:0.000000,throttle0:0.000000,throttle1:0.000000,engine-pump0:0,engine-pump1:0,electric-pump0:0,electric-pump1:0,external-power:0,APU-generator:0,latitude-deg:63.992,longitude-deg:-22.605,altitude-ft:146.229,roll-deg:0.107,pitch-deg:4.953,heading-deg:180.014,side-slip-deg:28.116,airspeed-kt:2.226,glideslope:0.404,vertical-speed-fps:0.000,airspeed-indicator_indicated-speed-kt:7.196882,altimeter_indicated-altitude-ft:280.347534,altimeter_pressure-alt-ft:-34.529976,attitude-indicator_indicated-pitch-deg:12.000000,attitude-indicator_indicated-roll-deg:40.000000,attitude-indicator_internal-pitch-deg:0.000000,attitude-indicator_internal-roll-deg:0.000000,encoder_indicated-altitude-ft:-29.999857,encoder_pressure-alt-ft:-30.000000,gps_indicated-altitude-ft:146.229462,gps_indicated-ground-speed-kt:0.000026,gps_indicated-vertical-speed:0.001174,indicated-heading-deg:192.901627,magnetic-compass_indicated-heading-deg:112.834000,slip-skid-ball_indicated-slip-skid:-0.018556,turn-indicator_indicated-turn-rate:-2.446114,vertical-speed-indicator_indicated-speed-fpm:-1396.236206,engine_rpm:0.000000 
aileron:1.000000,elevator:0.000000,rudder:0.000000,flaps:0.000000,slats:0.000000,speedbrake:0.000000,throttle0:0.000000,throttle1:0.000000,engine-pump0:0,engine-pump1:0,electric-pump0:0,electric-pump1:0,external-power:0,APU-generator:0,latitude-deg:63.992,longitude-deg:-22.605,altitude-ft:146.229,roll-deg:0.107,pitch-deg:4.953,heading-deg:180.014,side-slip-deg:27.093,airspeed-kt:2.238,glideslope:0.362,vertical-speed-fps:0.000,airspeed-indicator_indicated-speed-kt:7.363091,altimeter_indicated-altitude-ft:277.727234,altimeter_pressure-alt-ft:-37.150272,attitude-indicator_indicated-pitch-deg:12.000000,attitude-indicator_indicated-roll-deg:40.000000,attitude-indicator_internal-pitch-deg:0.000000,attitude-indicator_internal-roll-deg:0.000000,encoder_indicated-altitude-ft:-29.999857,encoder_pressure-alt-ft:-30.000000,gps_indicated-altitude-ft:146.229462,gps_indicated-ground-speed-kt:0.000025,gps_indicated-vertical-speed:0.001208,indicated-heading-deg:192.901627,magnetic-compass_indicated-heading-deg:113.615059,slip-skid-ball_indicated-slip-skid:-0.018569,turn-indicator_indicated-turn-rate:-2.448747,vertical-speed-indicator_indicated-speed-fpm:-1413.531860,engine_rpm:0.000000 
aileron:1.000000,elevator:0.000000,rudder:0.000000,flaps:0.000000,slats:0.000000,speedbrake:0.000000,throttle0:0.000000,throttle1:0.000000,engine-pump0:0,engine-pump1:0,electric-pump0:0,electric-pump1:0,external-power:0,APU-generator:0,latitude-deg:63.992,longitude-deg:-22.605,altitude-ft:146.229,roll-deg:0.107,pitch-deg:4.953,heading-deg:180.014,side-slip-deg:25.997,airspeed-kt:2.253,glideslope:0.347,vertical-speed-fps:0.000,airspeed-indicator_indicated-speed-kt:7.402004,altimeter_indicated-altitude-ft:274.788239,altimeter_pressure-alt-ft:-40.089279,attitude-indicator_indicated-pitch-deg:12.000000,attitude-indicator_indicated-roll-deg:40.000000,attitude-indicator_internal-pitch-deg:0.000000,attitude-indicator_internal-roll-deg:0.000000,encoder_indicated-altitude-ft:-39.999859,encoder_pressure-alt-ft:-40.000000,gps_indicated-altitude-ft:146.229462,gps_indicated-ground-speed-kt:0.000025,gps_indicated-vertical-speed:0.001409,indicated-heading-deg:192.901627,magnetic-compass_indicated-heading-deg:114.620201,slip-skid-ball_indicated-slip-skid:-0.018589,turn-indicator_indicated-turn-rate:-2.451455,vertical-speed-indicator_indicated-speed-fpm:-1435.122803,engine_rpm:0.000000 
aileron:1.000000,elevator:0.000000,rudder:0.000000,flaps:0.000000,slats:0.000000,speedbrake:0.000000,throttle0:0.000000,throttle1:0.000000,engine-pump0:0,engine-pump1:0,electric-pump0:0,electric-pump1:0,external-power:0,APU-generator:0,latitude-deg:63.992,longitude-deg:-22.605,altitude-ft:146.229,roll-deg:0.107,pitch-deg:4.953,heading-deg:180.014,side-slip-deg:25.081,airspeed-kt:2.266,glideslope:0.206,vertical-speed-fps:0.000,airspeed-indicator_indicated-speed-kt:7.456873,altimeter_indicated-altitude-ft:272.365631,altimeter_pressure-alt-ft:-42.511868,attitude-indicator_indicated-pitch-deg:12.000000,attitude-indicator_indicated-roll-deg:40.000000,attitude-indicator_internal-pitch-deg:0.000000,attitude-indicator_internal-roll-deg:0.000000,encoder_indicated-altitude-ft:-39.999859,encoder_pressure-alt-ft:-40.000000,gps_indicated-altitude-ft:146.229477,gps_indicated-ground-speed-kt:0.000024,gps_indicated-vertical-speed:0.000537,indicated-heading-deg:192.901627,magnetic-compass_indicated-heading-deg:115.595627,slip-skid-ball_indicated-slip-skid:-0.018601,turn-indicator_indicated-turn-rate:-2.453634,vertical-speed-indicator_indicated-speed-fpm:-1449.026978,engine_rpm:0.000000 
aileron:1.000000,elevator:0.000000,rudder:0.000000,flaps:0.000000,slats:0.000000,speedbrake:0.000000,throttle0:0.000000,throttle1:0.000000,engine-pump0:0,engine-pump1:0,electric-pump0:0,electric-pump1:0,external-power:0,APU-generator:0,latitude-deg:63.992,longitude-deg:-22.605,altitude-ft:146.229,roll-deg:0.107,pitch-deg:4.953,heading-deg:180.014,side-slip-deg:24.093,airspeed-kt:2.280,glideslope:0.279,vertical-speed-fps:0.000,airspeed-indicator_indicated-speed-kt:7.472387,altimeter_indicated-altitude-ft:269.664551,altimeter_pressure-alt-ft:-45.212948,attitude-indicator_indicated-pitch-deg:12.000000,attitude-indicator_indicated-roll-deg:40.000000,attitude-indicator_internal-pitch-deg:0.000000,attitude-indicator_internal-roll-deg:0.000000,encoder_indicated-altitude-ft:-39.999859,encoder_pressure-alt-ft:-40.000000,gps_indicated-altitude-ft:146.229477,gps_indicated-ground-speed-kt:0.000024,gps_indicated-vertical-speed:0.000537,indicated-heading-deg:192.901627,magnetic-compass_indicated-heading-deg:116.785713,slip-skid-ball_indicated-slip-skid:-0.018617,turn-indicator_indicated-turn-rate:-2.455900,vertical-speed-indicator_indicated-speed-fpm:-1465.516602,engine_rpm:0.000000 
aileron:1.000000,elevator:0.000000,rudder:0.000000,flaps:0.000000,slats:0.000000,speedbrake:0.000000,throttle0:0.000000,throttle1:0.000000,engine-pump0:0,engine-pump1:0,electric-pump0:0,electric-pump1:0,external-power:0,APU-generator:0,latitude-deg:63.992,longitude-deg:-22.605,altitude-ft:146.229,roll-deg:0.108,pitch-deg:4.953,heading-deg:180.014,side-slip-deg:23.119,airspeed-kt:2.296,glideslope:0.402,vertical-speed-fps:0.000,airspeed-indicator_indicated-speed-kt:7.482155,altimeter_indicated-altitude-ft:266.962738,altimeter_pressure-alt-ft:-47.914764,attitude-indicator_indicated-pitch-deg:12.000000,attitude-indicator_indicated-roll-deg:40.000000,attitude-indicator_internal-pitch-deg:0.000000,attitude-indicator_internal-roll-deg:0.000000,encoder_indicated-altitude-ft:-49.999859,encoder_pressure-alt-ft:-50.000000,gps_indicated-altitude-ft:146.229477,gps_indicated-ground-speed-kt:0.000023,gps_indicated-vertical-speed:0.002583,indicated-heading-deg:192.901627,magnetic-compass_indicated-heading-deg:118.102448,slip-skid-ball_indicated-slip-skid:-0.018629,turn-indicator_indicated-turn-rate:-2.458055,vertical-speed-indicator_indicated-speed-fpm:-1480.698853,engine_rpm:0.000000 
aileron:1.000000,elevator:0.000000,rudder:0.000000,flaps:0.000000,slats:0.000000,speedbrake:0.000000,throttle0:0.000000,throttle1:0.000000,engine-pump0:0,engine-pump1:0,electric-pump0:0,electric-pump1:0,external-power:0,APU-generator:0,latitude-deg:63.992,longitude-deg:-22.605,altitude-ft:146.229,roll-deg:0.108,pitch-deg:4.953,heading-deg:180.014,side-slip-deg:22.158,airspeed-kt:2.311,glideslope:0.396,vertical-speed-fps:0.000,airspeed-indicator_indicated-speed-kt:7.491501,altimeter_indicated-altitude-ft:264.260651,altimeter_pressure-alt-ft:-50.616852,attitude-indicator_indicated-pitch-deg:12.000000,attitude-indicator_indicated-roll-deg:40.000000,attitude-indicator_internal-pitch-deg:0.000000,attitude-indicator_internal-roll-deg:0.000000,encoder_indicated-altitude-ft:-49.999859,encoder_pressure-alt-ft:-50.000000,gps_indicated-altitude-ft:146.229477,gps_indicated-ground-speed-kt:0.000023,gps_indicated-vertical-speed:0.001577,indicated-heading-deg:192.901627,magnetic-compass_indicated-heading-deg:119.540695,slip-skid-ball_indicated-slip-skid:-0.018636,turn-indicator_indicated-turn-rate:-2.460105,vertical-speed-indicator_indicated-speed-fpm:-1494.682495,engine_rpm:0.000000 
aileron:1.000000,elevator:0.000000,rudder:0.000000,flaps:0.000000,slats:0.000000,speedbrake:0.000000,throttle0:0.000000,throttle1:0.000000,engine-pump0:0,engine-pump1:0,electric-pump0:0,electric-pump1:0,external-power:0,APU-generator:0,latitude-deg:63.992,longitude-deg:-22.605,altitude-ft:146.229,roll-deg:0.108,pitch-deg:4.953,heading-deg:180.014,side-slip-deg:21.210,airspeed-kt:2.328,glideslope:0.305,vertical-speed-fps:0.000,airspeed-indicator_indicated-speed-kt:7.500759,altimeter_indicated-altitude-ft:261.558472,altimeter_pressure-alt-ft:-53.319042,attitude-indicator_indicated-pitch-deg:12.000000,attitude-indicator_indicated-roll-deg:40.000000,attitude-indicator_internal-pitch-deg:0.000000,attitude-indicator_internal-roll-deg:0.000000,encoder_indicated-altitude-ft:-49.999859,encoder_pressure-alt-ft:-50.000000,gps_indicated-altitude-ft:146.229477,gps_indicated-ground-speed-kt:0.000022,gps_indicated-vertical-speed:0.000872,indicated-heading-deg:192.901627,magnetic-compass_indicated-heading-deg:121.095200,slip-skid-ball_indicated-slip-skid:-0.018658,turn-indicator_indicated-turn-rate:-2.462054,vertical-speed-indicator_indicated-speed-fpm:-1507.575439,engine_rpm:0.000000 
aileron:1.000000,elevator:0.000000,rudder:0.000000,flaps:0.000000,slats:0.000000,speedbrake:0.000000,throttle0:0.000000,throttle1:0.000000,engine-pump0:0,engine-pump1:0,electric-pump0:0,electric-pump1:0,external-power:0,APU-generator:0,latitude-deg:63.992,longitude-deg:-22.605,altitude-ft:146.229,roll-deg:0.108,pitch-deg:4.953,heading-deg:180.014,side-slip-deg:20.275,airspeed-kt:2.345,glideslope:0.353,vertical-speed-fps:0.000,airspeed-indicator_indicated-speed-kt:7.510041,altimeter_indicated-altitude-ft:258.856232,altimeter_pressure-alt-ft:-56.021282,attitude-indicator_indicated-pitch-deg:12.000000,attitude-indicator_indicated-roll-deg:40.000000,attitude-indicator_internal-pitch-deg:0.000000,attitude-indicator_internal-roll-deg:0.000000,encoder_indicated-altitude-ft:-49.999859,encoder_pressure-alt-ft:-50.000000,gps_indicated-altitude-ft:146.229477,gps_indicated-ground-speed-kt:0.000022,gps_indicated-vertical-speed:0.000973,indicated-heading-deg:192.901627,magnetic-compass_indicated-heading-deg:122.760590,slip-skid-ball_indicated-slip-skid:-0.018673,turn-indicator_indicated-turn-rate:-2.463909,vertical-speed-indicator_indicated-speed-fpm:-1519.476440,engine_rpm:0.000000 
aileron:1.000000,elevator:0.000000,rudder:0.000000,flaps:0.000000,slats:0.000000,speedbrake:0.000000,throttle0:0.000000,throttle1:0.000000,engine-pump0:0,engine-pump1:0,electric-pump0:0,electric-pump1:0,external-power:0,APU-generator:0,latitude-deg:63.992,longitude-deg:-22.605,altitude-ft:146.229,roll-deg:0.108,pitch-deg:4.953,heading-deg:180.014,side-slip-deg:19.279,airspeed-kt:2.365,glideslope:0.337,vertical-speed-fps:0.000,airspeed-indicator_indicated-speed-kt:7.492948,altimeter_indicated-altitude-ft:255.886993,altimeter_pressure-alt-ft:-58.990517,attitude-indicator_indicated-pitch-deg:12.000000,attitude-indicator_indicated-roll-deg:40.000000,attitude-indicator_internal-pitch-deg:0.000000,attitude-indicator_internal-roll-deg:0.000000,encoder_indicated-altitude-ft:-59.999859,encoder_pressure-alt-ft:-60.000000,gps_indicated-altitude-ft:146.229477,gps_indicated-ground-speed-kt:0.000022,gps_indicated-vertical-speed:0.001342,indicated-heading-deg:192.901627,magnetic-compass_indicated-heading-deg:124.683510,slip-skid-ball_indicated-slip-skid:-0.018690,turn-indicator_indicated-turn-rate:-2.465816,vertical-speed-indicator_indicated-speed-fpm:-1533.109619,engine_rpm:0.000000 
aileron:1.000000,elevator:0.000000,rudder:0.000000,flaps:0.000000,slats:0.000000,speedbrake:0.000000,throttle0:0.000000,throttle1:0.000000,engine-pump0:0,engine-pump1:0,electric-pump0:0,electric-pump1:0,external-power:0,APU-generator:0,latitude-deg:63.992,longitude-deg:-22.605,altitude-ft:146.229,roll-deg:0.108,pitch-deg:4.953,heading-deg:180.014,side-slip-deg:18.449,airspeed-kt:2.382,glideslope:0.447,vertical-speed-fps:0.000,airspeed-indicator_indicated-speed-kt:7.531345,altimeter_indicated-altitude-ft:253.455475,altimeter_pressure-alt-ft:-61.422043,attitude-indicator_indicated-pitch-deg:12.000000,attitude-indicator_indicated-roll-deg:40.000000,attitude-indicator_internal-pitch-deg:0.000000,attitude-indicator_internal-roll-deg:0.000000,encoder_indicated-altitude-ft:-59.999859,encoder_pressure-alt-ft:-60.000000,gps_indicated-altitude-ft:146.229477,gps_indicated-ground-speed-kt:0.000021,gps_indicated-vertical-speed:0.000872,indicated-heading-deg:192.901627,magnetic-compass_indicated-heading-deg:126.401924,slip-skid-ball_indicated-slip-skid:-0.018696,turn-indicator_indicated-turn-rate:-2.467350,vertical-speed-indicator_indicated-speed-fpm:-1540.420288,engine_rpm:0.000000 
